{"crs": {"type": "name", "properties": {"name": "urn:ogc:def:crs:EPSG:4326"}}, "type": "FeatureCollection", "features": [{"type": "Feature", "properties": {"index": "254", "SM": 0, "SM_nom": "oxford -  Pear Tree P&R", "cluster": "0_41"}, "geometry": {"type": "Point", "coordinates": [-1.2815200971029648, 51.793621639933406]}}, {"type": "Feature", "properties": {"index": "252", "SM": 0, "SM_nom": "oxford -  Redbridge P&R", "cluster": "0_39"}, "geometry": {"type": "Point", "coordinates": [-1.2496651083722015, 51.72961579664369]}}, {"type": "Feature", "properties": {"index": "255", "SM": 9, "SM_nom": "oxford -  Water Eaton P&R", "cluster": "9_0"}, "geometry": {"type": "Point", "coordinates": [-1.2727661053603032, 51.80288488577811]}}, {"type": "Feature", "properties": {"index": "253", "SM": 0, "SM_nom": "oxford -  Seacourt P&R", "cluster": "0_40"}, "geometry": {"type": "Point", "coordinates": [-1.28935249118339, 51.75419164491462]}}, {"type": "Feature", "properties": {"index": "256", "SM": 0, "SM_nom": "oxford -  Thornhill P&R", "cluster": "0_42"}, "geometry": {"type": "Point", "coordinates": [-1.1807368169858323, 51.761905984986456]}}, {"type": "Feature", "properties": {"index": "595", "SM": 14, "SM_nom": "Warwickshire", "cluster": "14_8"}, "geometry": {"type": "Point", "coordinates": [-1.608382683231142, 52.06924995158501]}}, {"type": "Feature", "properties": {"index": "864", "SM": 8, "SM_nom": "spare zone", "cluster": "8_247"}, "geometry": {"type": "Point", "coordinates": [-1.2941, 51.75326]}}, {"type": "Feature", "properties": {"index": "759", "SM": 8, "SM_nom": "spare zone", "cluster": "8_142"}, "geometry": {"type": "Point", "coordinates": [-1.2941, 51.75326]}}, {"type": "Feature", "properties": {"index": "790", "SM": 8, "SM_nom": "spare zone", "cluster": "8_173"}, "geometry": {"type": "Point", "coordinates": [-1.2941, 51.75326]}}, {"type": "Feature", "properties": {"index": "746", "SM": 8, "SM_nom": "spare zone", "cluster": "8_129"}, "geometry": {"type": "Point", "coordinates": [-1.2941, 51.75326]}}, {"type": "Feature", "properties": {"index": "782", "SM": 8, "SM_nom": "spare zone", "cluster": "8_165"}, "geometry": {"type": "Point", "coordinates": [-1.2941, 51.75326]}}, {"type": "Feature", "properties": {"index": "563", "SM": 13, "SM_nom": "Herefordshire", "cluster": "13_2"}, "geometry": {"type": "Point", "coordinates": [-2.730098603754173, 52.11093314848934]}}, {"type": "Feature", "properties": {"index": "400", "SM": 7, "SM_nom": "West_Oxfordshire", "cluster": "7_19"}, "geometry": {"type": "Point", "coordinates": [-1.5963177595640023, 51.946272687298844]}}, {"type": "Feature", "properties": {"index": "751", "SM": 8, "SM_nom": "spare zone", "cluster": "8_134"}, "geometry": {"type": "Point", "coordinates": [-1.2941, 51.75326]}}, {"type": "Feature", "properties": {"index": "713", "SM": 8, "SM_nom": "spare zone", "cluster": "8_96"}, "geometry": {"type": "Point", "coordinates": [-1.2941, 51.75326]}}, {"type": "Feature", "properties": {"index": "441", "SM": 8, "SM_nom": "Vale of White Horse", "cluster": "8_38"}, "geometry": {"type": "Point", "coordinates": [-1.651457812416976, 51.66027985703022]}}, {"type": "Feature", "properties": {"index": "376", "SM": 9, "SM_nom": "40 Cherwell Valley M - car park?", "cluster": "9_29"}, "geometry": {"type": "Point", "coordinates": [-1.1876831131160523, 51.951466677729265]}}, {"type": "Feature", "properties": {"index": "554", "SM": 14, "SM_nom": "North East", "cluster": "14_2"}, "geometry": {"type": "Point", "coordinates": [-2.070325413505534, 55.131652749826465]}}, {"type": "Feature", "properties": {"index": "837", "SM": 8, "SM_nom": "spare zone", "cluster": "8_220"}, "geometry": {"type": "Point", "coordinates": [-1.2941, 51.75326]}}, {"type": "Feature", "properties": {"index": "897", "SM": 8, "SM_nom": "spare zone", "cluster": "8_280"}, "geometry": {"type": "Point", "coordinates": [-1.2941, 51.75326]}}, {"type": "Feature", "properties": {"index": "715", "SM": 8, "SM_nom": "spare zone", "cluster": "8_98"}, "geometry": {"type": "Point", "coordinates": [-1.2941, 51.75326]}}, {"type": "Feature", "properties": {"index": "576", "SM": 11, "SM_nom": "Devon and Cornwall", "cluster": "11_7"}, "geometry": {"type": "Point", "coordinates": [-4.113581927768276, 50.601421157445486]}}, {"type": "Feature", "properties": {"index": "867", "SM": 8, "SM_nom": "spare zone", "cluster": "8_250"}, "geometry": {"type": "Point", "coordinates": [-1.2941, 51.75326]}}, {"type": "Feature", "properties": {"index": "566", "SM": 10, "SM_nom": "East Sussex", "cluster": "10_0"}, "geometry": {"type": "Point", "coordinates": [0.370473442435146, 50.94079845764752]}}, {"type": "Feature", "properties": {"index": "747", "SM": 8, "SM_nom": "spare zone", "cluster": "8_130"}, "geometry": {"type": "Point", "coordinates": [-1.2941, 51.75326]}}, {"type": "Feature", "properties": {"index": "883", "SM": 8, "SM_nom": "spare zone", "cluster": "8_266"}, "geometry": {"type": "Point", "coordinates": [-1.2941, 51.75326]}}, {"type": "Feature", "properties": {"index": "573", "SM": 13, "SM_nom": "Gloucestershire", "cluster": "13_4"}, "geometry": {"type": "Point", "coordinates": [-2.556312054587192, 51.80876987271182]}}, {"type": "Feature", "properties": {"index": "854", "SM": 8, "SM_nom": "spare zone", "cluster": "8_237"}, "geometry": {"type": "Point", "coordinates": [-1.2941, 51.75326]}}, {"type": "Feature", "properties": {"index": "857", "SM": 8, "SM_nom": "spare zone", "cluster": "8_240"}, "geometry": {"type": "Point", "coordinates": [-1.2941, 51.75326]}}, {"type": "Feature", "properties": {"index": "766", "SM": 8, "SM_nom": "spare zone", "cluster": "8_149"}, "geometry": {"type": "Point", "coordinates": [-1.2941, 51.75326]}}, {"type": "Feature", "properties": {"index": "382", "SM": 9, "SM_nom": "Cherwell", "cluster": "9_35"}, "geometry": {"type": "Point", "coordinates": [-1.3233746901034076, 52.135435202490044]}}, {"type": "Feature", "properties": {"index": "250", "SM": 5, "SM_nom": "Cherwell", "cluster": "5_5"}, "geometry": {"type": "Point", "coordinates": [-1.3187784938798766, 52.06237118355214]}}, {"type": "Feature", "properties": {"index": "869", "SM": 8, "SM_nom": "spare zone", "cluster": "8_252"}, "geometry": {"type": "Point", "coordinates": [-1.2941, 51.75326]}}, {"type": "Feature", "properties": {"index": "768", "SM": 8, "SM_nom": "spare zone", "cluster": "8_151"}, "geometry": {"type": "Point", "coordinates": [-1.2941, 51.75326]}}, {"type": "Feature", "properties": {"index": "708", "SM": 8, "SM_nom": "spare zone", "cluster": "8_91"}, "geometry": {"type": "Point", "coordinates": [-1.2941, 51.75326]}}, {"type": "Feature", "properties": {"index": "700", "SM": 12, "SM_nom": "Norfolk", "cluster": "12_39"}, "geometry": {"type": "Point", "coordinates": [0.9524411475457221, 52.67369171493782]}}, {"type": "Feature", "properties": {"index": "605", "SM": 12, "SM_nom": "Northamptonshire", "cluster": "12_1"}, "geometry": {"type": "Point", "coordinates": [-1.2345485377924381, 52.11578284032787]}}, {"type": "Feature", "properties": {"index": "363", "SM": 9, "SM_nom": "Cherwell", "cluster": "9_18"}, "geometry": {"type": "Point", "coordinates": [-1.3290371944132677, 51.9505765643126]}}, {"type": "Feature", "properties": {"index": "249", "SM": 5, "SM_nom": "Cherwell", "cluster": "5_4"}, "geometry": {"type": "Point", "coordinates": [-1.3194566064586297, 52.074411706909714]}}, {"type": "Feature", "properties": {"index": "581", "SM": 13, "SM_nom": "Gloucestershire", "cluster": "13_9"}, "geometry": {"type": "Point", "coordinates": [-1.8980634559157625, 51.786104813387226]}}, {"type": "Feature", "properties": {"index": "858", "SM": 8, "SM_nom": "spare zone", "cluster": "8_241"}, "geometry": {"type": "Point", "coordinates": [-1.2941, 51.75326]}}, {"type": "Feature", "properties": {"index": "560", "SM": 14, "SM_nom": "Lincolnshire", "cluster": "14_4"}, "geometry": {"type": "Point", "coordinates": [-0.1893549011911116, 53.128442804531005]}}, {"type": "Feature", "properties": {"index": "762", "SM": 8, "SM_nom": "spare zone", "cluster": "8_145"}, "geometry": {"type": "Point", "coordinates": [-1.2941, 51.75326]}}, {"type": "Feature", "properties": {"index": "850", "SM": 8, "SM_nom": "spare zone", "cluster": "8_233"}, "geometry": {"type": "Point", "coordinates": [-1.2941, 51.75326]}}, {"type": "Feature", "properties": {"index": "555", "SM": 13, "SM_nom": "Wales", "cluster": "13_0"}, "geometry": {"type": "Point", "coordinates": [-3.607434370930779, 52.37035290168426]}}, {"type": "Feature", "properties": {"index": "381", "SM": 9, "SM_nom": "Cherwell", "cluster": "9_34"}, "geometry": {"type": "Point", "coordinates": [-1.2935699786926367, 52.10696875116714]}}, {"type": "Feature", "properties": {"index": "880", "SM": 8, "SM_nom": "spare zone", "cluster": "8_263"}, "geometry": {"type": "Point", "coordinates": [-1.2941, 51.75326]}}, {"type": "Feature", "properties": {"index": "738", "SM": 8, "SM_nom": "spare zone", "cluster": "8_121"}, "geometry": {"type": "Point", "coordinates": [-1.2941, 51.75326]}}, {"type": "Feature", "properties": {"index": "888", "SM": 8, "SM_nom": "spare zone", "cluster": "8_271"}, "geometry": {"type": "Point", "coordinates": [-1.2941, 51.75326]}}, {"type": "Feature", "properties": {"index": "412", "SM": 7, "SM_nom": "West_Oxfordshire", "cluster": "7_31"}, "geometry": {"type": "Point", "coordinates": [-1.4191335155994005, 51.77485801591004]}}, {"type": "Feature", "properties": {"index": "810", "SM": 8, "SM_nom": "spare zone", "cluster": "8_193"}, "geometry": {"type": "Point", "coordinates": [-1.2941, 51.75326]}}, {"type": "Feature", "properties": {"index": "886", "SM": 8, "SM_nom": "spare zone", "cluster": "8_269"}, "geometry": {"type": "Point", "coordinates": [-1.2941, 51.75326]}}, {"type": "Feature", "properties": {"index": "694", "SM": 12, "SM_nom": "Essex", "cluster": "12_38"}, "geometry": {"type": "Point", "coordinates": [0.38120303168172703, 51.77059655238922]}}, {"type": "Feature", "properties": {"index": "822", "SM": 8, "SM_nom": "spare zone", "cluster": "8_205"}, "geometry": {"type": "Point", "coordinates": [-1.2941, 51.75326]}}, {"type": "Feature", "properties": {"index": "743", "SM": 8, "SM_nom": "spare zone", "cluster": "8_126"}, "geometry": {"type": "Point", "coordinates": [-1.2941, 51.75326]}}, {"type": "Feature", "properties": {"index": "607", "SM": 12, "SM_nom": "Northamptonshire", "cluster": "12_3"}, "geometry": {"type": "Point", "coordinates": [-1.2135425746474955, 52.036302647713704]}}, {"type": "Feature", "properties": {"index": "757", "SM": 8, "SM_nom": "spare zone", "cluster": "8_140"}, "geometry": {"type": "Point", "coordinates": [-1.2941, 51.75326]}}, {"type": "Feature", "properties": {"index": "395", "SM": 7, "SM_nom": "West_Oxfordshire", "cluster": "7_14"}, "geometry": {"type": "Point", "coordinates": [-1.5264847979175489, 51.869630283629846]}}, {"type": "Feature", "properties": {"index": "840", "SM": 8, "SM_nom": "spare zone", "cluster": "8_223"}, "geometry": {"type": "Point", "coordinates": [-1.2941, 51.75326]}}, {"type": "Feature", "properties": {"index": "579", "SM": 13, "SM_nom": "Gloucestershire", "cluster": "13_7"}, "geometry": {"type": "Point", "coordinates": [-1.741183771327282, 52.004715198893486]}}, {"type": "Feature", "properties": {"index": "601", "SM": 14, "SM_nom": "Warwickshire", "cluster": "14_14"}, "geometry": {"type": "Point", "coordinates": [-1.3181235742946131, 52.30778837135099]}}, {"type": "Feature", "properties": {"index": "598", "SM": 14, "SM_nom": "Warwickshire", "cluster": "14_11"}, "geometry": {"type": "Point", "coordinates": [-1.4313632885827596, 52.1861173851449]}}, {"type": "Feature", "properties": {"index": "826", "SM": 8, "SM_nom": "spare zone", "cluster": "8_209"}, "geometry": {"type": "Point", "coordinates": [-1.2941, 51.75326]}}, {"type": "Feature", "properties": {"index": "379", "SM": 9, "SM_nom": "Cherwell", "cluster": "9_32"}, "geometry": {"type": "Point", "coordinates": [-1.4424557316210906, 52.0829182405275]}}, {"type": "Feature", "properties": {"index": "371", "SM": 9, "SM_nom": "Cherwell", "cluster": "9_24"}, "geometry": {"type": "Point", "coordinates": [-1.3998095407247741, 52.018087786019436]}}, {"type": "Feature", "properties": {"index": "457", "SM": 8, "SM_nom": "Vale of White Horse", "cluster": "8_51"}, "geometry": {"type": "Point", "coordinates": [-1.3097087008747463, 51.67971914509561]}}, {"type": "Feature", "properties": {"index": "772", "SM": 8, "SM_nom": "spare zone", "cluster": "8_155"}, "geometry": {"type": "Point", "coordinates": [-1.2941, 51.75326]}}, {"type": "Feature", "properties": {"index": "297", "SM": 6, "SM_nom": "South Oxfordshire", "cluster": "6_17"}, "geometry": {"type": "Point", "coordinates": [-1.0866447418572345, 51.513821407629834]}}, {"type": "Feature", "properties": {"index": "619", "SM": 12, "SM_nom": "Buckinghamshire", "cluster": "12_15"}, "geometry": {"type": "Point", "coordinates": [-1.0249463268961911, 51.97249065839283]}}, {"type": "Feature", "properties": {"index": "845", "SM": 8, "SM_nom": "spare zone", "cluster": "8_228"}, "geometry": {"type": "Point", "coordinates": [-1.2941, 51.75326]}}, {"type": "Feature", "properties": {"index": "630", "SM": 12, "SM_nom": "Amersham", "cluster": "12_26"}, "geometry": {"type": "Point", "coordinates": [-0.6130194794271437, 51.63592561619821]}}, {"type": "Feature", "properties": {"index": "758", "SM": 8, "SM_nom": "spare zone", "cluster": "8_141"}, "geometry": {"type": "Point", "coordinates": [-1.2941, 51.75326]}}, {"type": "Feature", "properties": {"index": "635", "SM": 10, "SM_nom": "Berkshire", "cluster": "10_4"}, "geometry": {"type": "Point", "coordinates": [-1.1429016120271924, 51.5013241887747]}}, {"type": "Feature", "properties": {"index": "862", "SM": 8, "SM_nom": "spare zone", "cluster": "8_245"}, "geometry": {"type": "Point", "coordinates": [-1.2941, 51.75326]}}, {"type": "Feature", "properties": {"index": "730", "SM": 8, "SM_nom": "spare zone", "cluster": "8_113"}, "geometry": {"type": "Point", "coordinates": [-1.2941, 51.75326]}}, {"type": "Feature", "properties": {"index": "450", "SM": 8, "SM_nom": "Vale of White Horse", "cluster": "8_44"}, "geometry": {"type": "Point", "coordinates": [-1.4280094978587181, 51.67265244177341]}}, {"type": "Feature", "properties": {"index": "451", "SM": 8, "SM_nom": "Vale of White Horse", "cluster": "8_45"}, "geometry": {"type": "Point", "coordinates": [-1.452516885115191, 51.68489806846411]}}, {"type": "Feature", "properties": {"index": "752", "SM": 8, "SM_nom": "spare zone", "cluster": "8_135"}, "geometry": {"type": "Point", "coordinates": [-1.2941, 51.75326]}}, {"type": "Feature", "properties": {"index": "788", "SM": 8, "SM_nom": "spare zone", "cluster": "8_171"}, "geometry": {"type": "Point", "coordinates": [-1.2941, 51.75326]}}, {"type": "Feature", "properties": {"index": "449", "SM": 8, "SM_nom": "Vale of White Horse", "cluster": "8_43"}, "geometry": {"type": "Point", "coordinates": [-1.42561231063149, 51.64118832617099]}}, {"type": "Feature", "properties": {"index": "776", "SM": 8, "SM_nom": "spare zone", "cluster": "8_159"}, "geometry": {"type": "Point", "coordinates": [-1.2941, 51.75326]}}, {"type": "Feature", "properties": {"index": "572", "SM": 11, "SM_nom": "South Gloucestershir", "cluster": "11_4"}, "geometry": {"type": "Point", "coordinates": [-2.480975426483563, 51.548530566923496]}}, {"type": "Feature", "properties": {"index": "781", "SM": 8, "SM_nom": "spare zone", "cluster": "8_164"}, "geometry": {"type": "Point", "coordinates": [-1.2941, 51.75326]}}, {"type": "Feature", "properties": {"index": "701", "SM": 14, "SM_nom": "Yorkshire and Humber", "cluster": "14_26"}, "geometry": {"type": "Point", "coordinates": [-1.1666873641149995, 53.93183373946978]}}, {"type": "Feature", "properties": {"index": "448", "SM": 8, "SM_nom": "Vale of White Horse", "cluster": "8_42"}, "geometry": {"type": "Point", "coordinates": [-1.45190225728579, 51.64614761919877]}}, {"type": "Feature", "properties": {"index": "898", "SM": 8, "SM_nom": "spare zone", "cluster": "8_281"}, "geometry": {"type": "Point", "coordinates": [-1.2941, 51.75326]}}, {"type": "Feature", "properties": {"index": "568", "SM": 10, "SM_nom": "West Sussex", "cluster": "10_2"}, "geometry": {"type": "Point", "coordinates": [-0.5265448363555052, 50.94080549430598]}}, {"type": "Feature", "properties": {"index": "770", "SM": 8, "SM_nom": "spare zone", "cluster": "8_153"}, "geometry": {"type": "Point", "coordinates": [-1.2941, 51.75326]}}, {"type": "Feature", "properties": {"index": "808", "SM": 8, "SM_nom": "spare zone", "cluster": "8_191"}, "geometry": {"type": "Point", "coordinates": [-1.2941, 51.75326]}}, {"type": "Feature", "properties": {"index": "389", "SM": 7, "SM_nom": "West_Oxfordshire", "cluster": "7_8"}, "geometry": {"type": "Point", "coordinates": [-1.481262580231929, 51.89679496101394]}}, {"type": "Feature", "properties": {"index": "707", "SM": 8, "SM_nom": "spare zone", "cluster": "8_90"}, "geometry": {"type": "Point", "coordinates": [-1.2941, 51.75326]}}, {"type": "Feature", "properties": {"index": "745", "SM": 8, "SM_nom": "spare zone", "cluster": "8_128"}, "geometry": {"type": "Point", "coordinates": [-1.2941, 51.75326]}}, {"type": "Feature", "properties": {"index": "552", "SM": 14, "SM_nom": "North West", "cluster": "14_0"}, "geometry": {"type": "Point", "coordinates": [-2.6847815370335915, 54.06805913751103]}}, {"type": "Feature", "properties": {"index": "721", "SM": 8, "SM_nom": "spare zone", "cluster": "8_104"}, "geometry": {"type": "Point", "coordinates": [-1.2941, 51.75326]}}, {"type": "Feature", "properties": {"index": "896", "SM": 8, "SM_nom": "spare zone", "cluster": "8_279"}, "geometry": {"type": "Point", "coordinates": [-1.2941, 51.75326]}}, {"type": "Feature", "properties": {"index": "900", "SM": 8, "SM_nom": "spare zone", "cluster": "8_283"}, "geometry": {"type": "Point", "coordinates": [-1.2941, 51.75326]}}, {"type": "Feature", "properties": {"index": "806", "SM": 8, "SM_nom": "spare zone", "cluster": "8_189"}, "geometry": {"type": "Point", "coordinates": [-1.2941, 51.75326]}}, {"type": "Feature", "properties": {"index": "744", "SM": 8, "SM_nom": "spare zone", "cluster": "8_127"}, "geometry": {"type": "Point", "coordinates": [-1.2941, 51.75326]}}, {"type": "Feature", "properties": {"index": "844", "SM": 8, "SM_nom": "spare zone", "cluster": "8_227"}, "geometry": {"type": "Point", "coordinates": [-1.2941, 51.75326]}}, {"type": "Feature", "properties": {"index": "564", "SM": 13, "SM_nom": "Shropshire", "cluster": "13_3"}, "geometry": {"type": "Point", "coordinates": [-2.6442394209205657, 52.6520271331635]}}, {"type": "Feature", "properties": {"index": "804", "SM": 8, "SM_nom": "spare zone", "cluster": "8_187"}, "geometry": {"type": "Point", "coordinates": [-1.2941, 51.75326]}}, {"type": "Feature", "properties": {"index": "787", "SM": 8, "SM_nom": "spare zone", "cluster": "8_170"}, "geometry": {"type": "Point", "coordinates": [-1.2941, 51.75326]}}, {"type": "Feature", "properties": {"index": "279", "SM": 8, "SM_nom": "Vale of White Horse", "cluster": "8_26"}, "geometry": {"type": "Point", "coordinates": [-1.3384103402040233, 51.61950777737142]}}, {"type": "Feature", "properties": {"index": "261", "SM": 0, "SM_nom": "oxford -  Oxpens Car Park", "cluster": "0_48"}, "geometry": {"type": "Point", "coordinates": [-1.2660029630147078, 51.748616020085734]}}, {"type": "Feature", "properties": {"index": "85", "SM": 0, "SM_nom": "Oxford", "cluster": "0_114"}, "geometry": {"type": "Point", "coordinates": [-1.2337700190373424, 51.72360960575741]}}, {"type": "Feature", "properties": {"index": "342", "SM": 6, "SM_nom": "South Oxfordshire", "cluster": "6_62"}, "geometry": {"type": "Point", "coordinates": [-1.1782441270464246, 51.740517179970816]}}, {"type": "Feature", "properties": {"index": "154", "SM": 6, "SM_nom": "South Oxfordshire", "cluster": "6_7"}, "geometry": {"type": "Point", "coordinates": [-1.112493488702189, 51.615102830666416]}}, {"type": "Feature", "properties": {"index": "556", "SM": 11, "SM_nom": "Wiltshire", "cluster": "11_0"}, "geometry": {"type": "Point", "coordinates": [-1.762285686699523, 51.58726063795109]}}, {"type": "Feature", "properties": {"index": "876", "SM": 8, "SM_nom": "spare zone", "cluster": "8_259"}, "geometry": {"type": "Point", "coordinates": [-1.2941, 51.75326]}}, {"type": "Feature", "properties": {"index": "843", "SM": 8, "SM_nom": "spare zone", "cluster": "8_226"}, "geometry": {"type": "Point", "coordinates": [-1.2941, 51.75326]}}, {"type": "Feature", "properties": {"index": "773", "SM": 8, "SM_nom": "spare zone", "cluster": "8_156"}, "geometry": {"type": "Point", "coordinates": [-1.2941, 51.75326]}}, {"type": "Feature", "properties": {"index": "709", "SM": 8, "SM_nom": "spare zone", "cluster": "8_92"}, "geometry": {"type": "Point", "coordinates": [-1.2941, 51.75326]}}, {"type": "Feature", "properties": {"index": "277", "SM": 8, "SM_nom": "Vale of White Horse", "cluster": "8_24"}, "geometry": {"type": "Point", "coordinates": [-1.3796670938395423, 51.584591369257666]}}, {"type": "Feature", "properties": {"index": "456", "SM": 8, "SM_nom": "Vale of White Horse", "cluster": "8_50"}, "geometry": {"type": "Point", "coordinates": [-1.3388907756810282, 51.68589178196325]}}, {"type": "Feature", "properties": {"index": "801", "SM": 8, "SM_nom": "spare zone", "cluster": "8_184"}, "geometry": {"type": "Point", "coordinates": [-1.2941, 51.75326]}}, {"type": "Feature", "properties": {"index": "895", "SM": 8, "SM_nom": "spare zone", "cluster": "8_278"}, "geometry": {"type": "Point", "coordinates": [-1.2941, 51.75326]}}, {"type": "Feature", "properties": {"index": "178", "SM": 1, "SM_nom": "Cherwell", "cluster": "1_14"}, "geometry": {"type": "Point", "coordinates": [-1.1369653153007437, 51.90322606320546]}}, {"type": "Feature", "properties": {"index": "624", "SM": 12, "SM_nom": "Aylesbury", "cluster": "12_20"}, "geometry": {"type": "Point", "coordinates": [-0.7381706537981444, 51.780696621959045]}}, {"type": "Feature", "properties": {"index": "627", "SM": 12, "SM_nom": "Buckinghamshire", "cluster": "12_23"}, "geometry": {"type": "Point", "coordinates": [-0.8642221415484344, 51.64292922967471]}}, {"type": "Feature", "properties": {"index": "620", "SM": 12, "SM_nom": "Buckinghamshire", "cluster": "12_16"}, "geometry": {"type": "Point", "coordinates": [-1.0593992990707983, 51.82082819408757]}}, {"type": "Feature", "properties": {"index": "740", "SM": 8, "SM_nom": "spare zone", "cluster": "8_123"}, "geometry": {"type": "Point", "coordinates": [-1.2941, 51.75326]}}, {"type": "Feature", "properties": {"index": "816", "SM": 8, "SM_nom": "spare zone", "cluster": "8_199"}, "geometry": {"type": "Point", "coordinates": [-1.2941, 51.75326]}}, {"type": "Feature", "properties": {"index": "728", "SM": 8, "SM_nom": "spare zone", "cluster": "8_111"}, "geometry": {"type": "Point", "coordinates": [-1.2941, 51.75326]}}, {"type": "Feature", "properties": {"index": "553", "SM": 14, "SM_nom": "Scotland", "cluster": "14_1"}, "geometry": {"type": "Point", "coordinates": [-3.909346140633861, 56.653111296594815]}}, {"type": "Feature", "properties": {"index": "775", "SM": 8, "SM_nom": "spare zone", "cluster": "8_158"}, "geometry": {"type": "Point", "coordinates": [-1.2941, 51.75326]}}, {"type": "Feature", "properties": {"index": "813", "SM": 8, "SM_nom": "spare zone", "cluster": "8_196"}, "geometry": {"type": "Point", "coordinates": [-1.2941, 51.75326]}}, {"type": "Feature", "properties": {"index": "706", "SM": 8, "SM_nom": "spare zone", "cluster": "8_89"}, "geometry": {"type": "Point", "coordinates": [-1.2941, 51.75326]}}, {"type": "Feature", "properties": {"index": "719", "SM": 8, "SM_nom": "spare zone", "cluster": "8_102"}, "geometry": {"type": "Point", "coordinates": [-1.2941, 51.75326]}}, {"type": "Feature", "properties": {"index": "842", "SM": 8, "SM_nom": "spare zone", "cluster": "8_225"}, "geometry": {"type": "Point", "coordinates": [-1.2941, 51.75326]}}, {"type": "Feature", "properties": {"index": "549", "SM": 6, "SM_nom": "South Oxfordshire", "cluster": "6_86"}, "geometry": {"type": "Point", "coordinates": [-0.9911869822828658, 51.66732142965784]}}, {"type": "Feature", "properties": {"index": "723", "SM": 8, "SM_nom": "spare zone", "cluster": "8_106"}, "geometry": {"type": "Point", "coordinates": [-1.2941, 51.75326]}}, {"type": "Feature", "properties": {"index": "798", "SM": 8, "SM_nom": "spare zone", "cluster": "8_181"}, "geometry": {"type": "Point", "coordinates": [-1.2941, 51.75326]}}, {"type": "Feature", "properties": {"index": "802", "SM": 8, "SM_nom": "spare zone", "cluster": "8_185"}, "geometry": {"type": "Point", "coordinates": [-1.2941, 51.75326]}}, {"type": "Feature", "properties": {"index": "885", "SM": 8, "SM_nom": "spare zone", "cluster": "8_268"}, "geometry": {"type": "Point", "coordinates": [-1.2941, 51.75326]}}, {"type": "Feature", "properties": {"index": "584", "SM": 11, "SM_nom": "Wiltshire", "cluster": "11_9"}, "geometry": {"type": "Point", "coordinates": [-1.8701240277961602, 51.634886357296125]}}, {"type": "Feature", "properties": {"index": "891", "SM": 8, "SM_nom": "spare zone", "cluster": "8_274"}, "geometry": {"type": "Point", "coordinates": [-1.2941, 51.75326]}}, {"type": "Feature", "properties": {"index": "884", "SM": 8, "SM_nom": "spare zone", "cluster": "8_267"}, "geometry": {"type": "Point", "coordinates": [-1.2941, 51.75326]}}, {"type": "Feature", "properties": {"index": "755", "SM": 8, "SM_nom": "spare zone", "cluster": "8_138"}, "geometry": {"type": "Point", "coordinates": [-1.2941, 51.75326]}}, {"type": "Feature", "properties": {"index": "783", "SM": 8, "SM_nom": "spare zone", "cluster": "8_166"}, "geometry": {"type": "Point", "coordinates": [-1.2941, 51.75326]}}, {"type": "Feature", "properties": {"index": "582", "SM": 13, "SM_nom": "Gloucestershire", "cluster": "13_10"}, "geometry": {"type": "Point", "coordinates": [-2.1840234406346726, 51.65671927735188]}}, {"type": "Feature", "properties": {"index": "262", "SM": 0, "SM_nom": "oxford -  Gloucester Green Car Park", "cluster": "0_49"}, "geometry": {"type": "Point", "coordinates": [-1.2600424722787322, 51.75442680379428]}}, {"type": "Feature", "properties": {"index": "887", "SM": 8, "SM_nom": "spare zone", "cluster": "8_270"}, "geometry": {"type": "Point", "coordinates": [-1.2941, 51.75326]}}, {"type": "Feature", "properties": {"index": "734", "SM": 8, "SM_nom": "spare zone", "cluster": "8_117"}, "geometry": {"type": "Point", "coordinates": [-1.2941, 51.75326]}}, {"type": "Feature", "properties": {"index": "809", "SM": 8, "SM_nom": "spare zone", "cluster": "8_192"}, "geometry": {"type": "Point", "coordinates": [-1.2941, 51.75326]}}, {"type": "Feature", "properties": {"index": "785", "SM": 8, "SM_nom": "spare zone", "cluster": "8_168"}, "geometry": {"type": "Point", "coordinates": [-1.2941, 51.75326]}}, {"type": "Feature", "properties": {"index": "774", "SM": 8, "SM_nom": "spare zone", "cluster": "8_157"}, "geometry": {"type": "Point", "coordinates": [-1.2941, 51.75326]}}, {"type": "Feature", "properties": {"index": "260", "SM": 0, "SM_nom": "oxford -  John Lewis, Westgate Shopping Centre, Oxford", "cluster": "0_47"}, "geometry": {"type": "Point", "coordinates": [-1.2629424913568377, 51.749234842508926]}}, {"type": "Feature", "properties": {"index": "259", "SM": 0, "SM_nom": "oxford -  Oxford Railway Station", "cluster": "0_45"}, "geometry": {"type": "Point", "coordinates": [-1.2693651433084097, 51.751612317778154]}}, {"type": "Feature", "properties": {"index": "874", "SM": 8, "SM_nom": "spare zone", "cluster": "8_257"}, "geometry": {"type": "Point", "coordinates": [-1.2941, 51.75326]}}, {"type": "Feature", "properties": {"index": "458", "SM": 8, "SM_nom": "Vale of White Horse", "cluster": "8_52"}, "geometry": {"type": "Point", "coordinates": [-1.3185792917065413, 51.621780074256115]}}, {"type": "Feature", "properties": {"index": "881", "SM": 8, "SM_nom": "spare zone", "cluster": "8_264"}, "geometry": {"type": "Point", "coordinates": [-1.2941, 51.75326]}}, {"type": "Feature", "properties": {"index": "894", "SM": 8, "SM_nom": "spare zone", "cluster": "8_277"}, "geometry": {"type": "Point", "coordinates": [-1.2941, 51.75326]}}, {"type": "Feature", "properties": {"index": "784", "SM": 8, "SM_nom": "spare zone", "cluster": "8_167"}, "geometry": {"type": "Point", "coordinates": [-1.2941, 51.75326]}}, {"type": "Feature", "properties": {"index": "754", "SM": 8, "SM_nom": "spare zone", "cluster": "8_137"}, "geometry": {"type": "Point", "coordinates": [-1.2941, 51.75326]}}, {"type": "Feature", "properties": {"index": "436", "SM": 7, "SM_nom": "West_Oxfordshire", "cluster": "7_55"}, "geometry": {"type": "Point", "coordinates": [-1.5496204687630653, 51.727418250428606]}}, {"type": "Feature", "properties": {"index": "639", "SM": 10, "SM_nom": "Berkshire", "cluster": "10_8"}, "geometry": {"type": "Point", "coordinates": [-0.5780277749975107, 51.52167405433231]}}, {"type": "Feature", "properties": {"index": "722", "SM": 8, "SM_nom": "spare zone", "cluster": "8_105"}, "geometry": {"type": "Point", "coordinates": [-1.2941, 51.75326]}}, {"type": "Feature", "properties": {"index": "143", "SM": 4, "SM_nom": "South Oxfordshire", "cluster": "4_15"}, "geometry": {"type": "Point", "coordinates": [-1.2345111806147653, 51.61252936312639]}}, {"type": "Feature", "properties": {"index": "870", "SM": 8, "SM_nom": "spare zone", "cluster": "8_253"}, "geometry": {"type": "Point", "coordinates": [-1.2941, 51.75326]}}, {"type": "Feature", "properties": {"index": "818", "SM": 8, "SM_nom": "spare zone", "cluster": "8_201"}, "geometry": {"type": "Point", "coordinates": [-1.2941, 51.75326]}}, {"type": "Feature", "properties": {"index": "299", "SM": 6, "SM_nom": "South Oxfordshire", "cluster": "6_19"}, "geometry": {"type": "Point", "coordinates": [-1.1299288281975852, 51.52870255336533]}}, {"type": "Feature", "properties": {"index": "833", "SM": 8, "SM_nom": "spare zone", "cluster": "8_216"}, "geometry": {"type": "Point", "coordinates": [-1.2941, 51.75326]}}, {"type": "Feature", "properties": {"index": "750", "SM": 8, "SM_nom": "spare zone", "cluster": "8_133"}, "geometry": {"type": "Point", "coordinates": [-1.2941, 51.75326]}}, {"type": "Feature", "properties": {"index": "830", "SM": 8, "SM_nom": "spare zone", "cluster": "8_213"}, "geometry": {"type": "Point", "coordinates": [-1.2941, 51.75326]}}, {"type": "Feature", "properties": {"index": "123", "SM": 6, "SM_nom": "South Oxfordshire", "cluster": "6_2"}, "geometry": {"type": "Point", "coordinates": [-1.1394457001318852, 51.607507837187356]}}, {"type": "Feature", "properties": {"index": "846", "SM": 8, "SM_nom": "spare zone", "cluster": "8_229"}, "geometry": {"type": "Point", "coordinates": [-1.2941, 51.75326]}}, {"type": "Feature", "properties": {"index": "779", "SM": 8, "SM_nom": "spare zone", "cluster": "8_162"}, "geometry": {"type": "Point", "coordinates": [-1.2941, 51.75326]}}, {"type": "Feature", "properties": {"index": "760", "SM": 8, "SM_nom": "spare zone", "cluster": "8_143"}, "geometry": {"type": "Point", "coordinates": [-1.2941, 51.75326]}}, {"type": "Feature", "properties": {"index": "275", "SM": 8, "SM_nom": "Vale of White Horse", "cluster": "8_22"}, "geometry": {"type": "Point", "coordinates": [-1.424431314906657, 51.56021593926263]}}, {"type": "Feature", "properties": {"index": "872", "SM": 8, "SM_nom": "spare zone", "cluster": "8_255"}, "geometry": {"type": "Point", "coordinates": [-1.2941, 51.75326]}}, {"type": "Feature", "properties": {"index": "742", "SM": 8, "SM_nom": "spare zone", "cluster": "8_125"}, "geometry": {"type": "Point", "coordinates": [-1.2941, 51.75326]}}, {"type": "Feature", "properties": {"index": "860", "SM": 8, "SM_nom": "spare zone", "cluster": "8_243"}, "geometry": {"type": "Point", "coordinates": [-1.2941, 51.75326]}}, {"type": "Feature", "properties": {"index": "795", "SM": 8, "SM_nom": "spare zone", "cluster": "8_178"}, "geometry": {"type": "Point", "coordinates": [-1.2941, 51.75326]}}, {"type": "Feature", "properties": {"index": "416", "SM": 7, "SM_nom": "West_Oxfordshire", "cluster": "7_35"}, "geometry": {"type": "Point", "coordinates": [-1.6001899900173608, 51.778403958501]}}, {"type": "Feature", "properties": {"index": "266", "SM": 8, "SM_nom": "Vale of White Horse", "cluster": "8_13"}, "geometry": {"type": "Point", "coordinates": [-1.652855629220245, 51.621102052017825]}}, {"type": "Feature", "properties": {"index": "72", "SM": 0, "SM_nom": "Oxford", "cluster": "0_100"}, "geometry": {"type": "Point", "coordinates": [-1.2126828013598083, 51.736902106896736]}}, {"type": "Feature", "properties": {"index": "623", "SM": 12, "SM_nom": "Buckinghamshire", "cluster": "12_19"}, "geometry": {"type": "Point", "coordinates": [-0.8665324668442769, 51.85340306121774]}}, {"type": "Feature", "properties": {"index": "454", "SM": 8, "SM_nom": "Vale of White Horse", "cluster": "8_48"}, "geometry": {"type": "Point", "coordinates": [-1.3380730804115035, 51.64746628307711]}}, {"type": "Feature", "properties": {"index": "882", "SM": 8, "SM_nom": "spare zone", "cluster": "8_265"}, "geometry": {"type": "Point", "coordinates": [-1.2941, 51.75326]}}, {"type": "Feature", "properties": {"index": "863", "SM": 8, "SM_nom": "spare zone", "cluster": "8_246"}, "geometry": {"type": "Point", "coordinates": [-1.2941, 51.75326]}}, {"type": "Feature", "properties": {"index": "23", "SM": 0, "SM_nom": "Oxford", "cluster": "0_36"}, "geometry": {"type": "Point", "coordinates": [-1.2651431363567722, 51.7676664712989]}}, {"type": "Feature", "properties": {"index": "315", "SM": 6, "SM_nom": "South Oxfordshire", "cluster": "6_35"}, "geometry": {"type": "Point", "coordinates": [-1.0304802063713716, 51.645933945446814]}}, {"type": "Feature", "properties": {"index": "703", "SM": 8, "SM_nom": "spare zone", "cluster": "8_86"}, "geometry": {"type": "Point", "coordinates": [-1.2941, 51.75326]}}, {"type": "Feature", "properties": {"index": "796", "SM": 8, "SM_nom": "spare zone", "cluster": "8_179"}, "geometry": {"type": "Point", "coordinates": [-1.2941, 51.75326]}}, {"type": "Feature", "properties": {"index": "674", "SM": 14, "SM_nom": "Birmingham", "cluster": "14_19"}, "geometry": {"type": "Point", "coordinates": [-1.9701559777745785, 52.60811368817136]}}, {"type": "Feature", "properties": {"index": "820", "SM": 8, "SM_nom": "spare zone", "cluster": "8_203"}, "geometry": {"type": "Point", "coordinates": [-1.2941, 51.75326]}}, {"type": "Feature", "properties": {"index": "606", "SM": 12, "SM_nom": "Northamptonshire", "cluster": "12_2"}, "geometry": {"type": "Point", "coordinates": [-0.7920414468751475, 52.20105659463382]}}, {"type": "Feature", "properties": {"index": "207", "SM": 3, "SM_nom": "Vale of White Horse", "cluster": "3_17"}, "geometry": {"type": "Point", "coordinates": [-1.286874861286422, 51.674199718269435]}}, {"type": "Feature", "properties": {"index": "26", "SM": 0, "SM_nom": "Oxford", "cluster": "0_46"}, "geometry": {"type": "Point", "coordinates": [-1.2610236683971356, 51.77971901290233]}}, {"type": "Feature", "properties": {"index": "849", "SM": 8, "SM_nom": "spare zone", "cluster": "8_232"}, "geometry": {"type": "Point", "coordinates": [-1.2941, 51.75326]}}, {"type": "Feature", "properties": {"index": "583", "SM": 11, "SM_nom": "Wiltshire", "cluster": "11_8"}, "geometry": {"type": "Point", "coordinates": [-1.9055226849910902, 51.522971928235236]}}, {"type": "Feature", "properties": {"index": "748", "SM": 8, "SM_nom": "spare zone", "cluster": "8_131"}, "geometry": {"type": "Point", "coordinates": [-1.2941, 51.75326]}}, {"type": "Feature", "properties": {"index": "847", "SM": 8, "SM_nom": "spare zone", "cluster": "8_230"}, "geometry": {"type": "Point", "coordinates": [-1.2941, 51.75326]}}, {"type": "Feature", "properties": {"index": "673", "SM": 14, "SM_nom": "Birmingham", "cluster": "14_18"}, "geometry": {"type": "Point", "coordinates": [-2.1313524118111467, 52.59164128202954]}}, {"type": "Feature", "properties": {"index": "827", "SM": 8, "SM_nom": "spare zone", "cluster": "8_210"}, "geometry": {"type": "Point", "coordinates": [-1.2941, 51.75326]}}, {"type": "Feature", "properties": {"index": "852", "SM": 8, "SM_nom": "spare zone", "cluster": "8_235"}, "geometry": {"type": "Point", "coordinates": [-1.2941, 51.75326]}}, {"type": "Feature", "properties": {"index": "817", "SM": 8, "SM_nom": "spare zone", "cluster": "8_200"}, "geometry": {"type": "Point", "coordinates": [-1.2941, 51.75326]}}, {"type": "Feature", "properties": {"index": "33", "SM": 0, "SM_nom": "Oxford", "cluster": "0_57"}, "geometry": {"type": "Point", "coordinates": [-1.2715113451537634, 51.79092178791629]}}, {"type": "Feature", "properties": {"index": "622", "SM": 12, "SM_nom": "Buckinghamshire", "cluster": "12_18"}, "geometry": {"type": "Point", "coordinates": [-0.7424740894070921, 51.94081337689389]}}, {"type": "Feature", "properties": {"index": "483", "SM": 6, "SM_nom": "South Oxfordshire", "cluster": "6_81"}, "geometry": {"type": "Point", "coordinates": [-1.0846549839825004, 51.66992756076591]}}, {"type": "Feature", "properties": {"index": "535", "SM": 7, "SM_nom": "West_Oxfordshire", "cluster": "7_66"}, "geometry": {"type": "Point", "coordinates": [-1.3441254660179967, 51.826169459837914]}}, {"type": "Feature", "properties": {"index": "824", "SM": 8, "SM_nom": "spare zone", "cluster": "8_207"}, "geometry": {"type": "Point", "coordinates": [-1.2941, 51.75326]}}, {"type": "Feature", "properties": {"index": "786", "SM": 8, "SM_nom": "spare zone", "cluster": "8_169"}, "geometry": {"type": "Point", "coordinates": [-1.2941, 51.75326]}}, {"type": "Feature", "properties": {"index": "877", "SM": 8, "SM_nom": "spare zone", "cluster": "8_260"}, "geometry": {"type": "Point", "coordinates": [-1.2941, 51.75326]}}, {"type": "Feature", "properties": {"index": "245", "SM": 5, "SM_nom": "Cherwell", "cluster": "5_0"}, "geometry": {"type": "Point", "coordinates": [-1.3512581309116118, 52.04826744534566]}}, {"type": "Feature", "properties": {"index": "794", "SM": 8, "SM_nom": "spare zone", "cluster": "8_177"}, "geometry": {"type": "Point", "coordinates": [-1.2941, 51.75326]}}, {"type": "Feature", "properties": {"index": "821", "SM": 8, "SM_nom": "spare zone", "cluster": "8_204"}, "geometry": {"type": "Point", "coordinates": [-1.2941, 51.75326]}}, {"type": "Feature", "properties": {"index": "671", "SM": 10, "SM_nom": "Surrey", "cluster": "10_36"}, "geometry": {"type": "Point", "coordinates": [-0.5197555075943477, 51.36896365346564]}}, {"type": "Feature", "properties": {"index": "716", "SM": 8, "SM_nom": "spare zone", "cluster": "8_99"}, "geometry": {"type": "Point", "coordinates": [-1.2941, 51.75326]}}, {"type": "Feature", "properties": {"index": "88", "SM": 0, "SM_nom": "Oxford", "cluster": "0_117"}, "geometry": {"type": "Point", "coordinates": [-1.2283580853106693, 51.728868209391834]}}, {"type": "Feature", "properties": {"index": "714", "SM": 8, "SM_nom": "spare zone", "cluster": "8_97"}, "geometry": {"type": "Point", "coordinates": [-1.2941, 51.75326]}}, {"type": "Feature", "properties": {"index": "771", "SM": 8, "SM_nom": "spare zone", "cluster": "8_154"}, "geometry": {"type": "Point", "coordinates": [-1.2941, 51.75326]}}, {"type": "Feature", "properties": {"index": "7", "SM": 0, "SM_nom": "Oxford", "cluster": "0_97"}, "geometry": {"type": "Point", "coordinates": [-1.271751214816559, 51.74759885125211]}}, {"type": "Feature", "properties": {"index": "526", "SM": 9, "SM_nom": "Cherwell", "cluster": "9_49"}, "geometry": {"type": "Point", "coordinates": [-1.287045826819484, 51.821362881236]}}, {"type": "Feature", "properties": {"index": "729", "SM": 8, "SM_nom": "spare zone", "cluster": "8_112"}, "geometry": {"type": "Point", "coordinates": [-1.2941, 51.75326]}}, {"type": "Feature", "properties": {"index": "430", "SM": 7, "SM_nom": "West_Oxfordshire", "cluster": "7_49"}, "geometry": {"type": "Point", "coordinates": [-1.5893972797245035, 51.753115419471456]}}, {"type": "Feature", "properties": {"index": "633", "SM": 12, "SM_nom": "Buckinghamshire", "cluster": "12_29"}, "geometry": {"type": "Point", "coordinates": [-0.5177709204247697, 51.550115667673296]}}, {"type": "Feature", "properties": {"index": "302", "SM": 6, "SM_nom": "South Oxfordshire", "cluster": "6_22"}, "geometry": {"type": "Point", "coordinates": [-1.070556023016688, 51.53553535593975]}}, {"type": "Feature", "properties": {"index": "727", "SM": 8, "SM_nom": "spare zone", "cluster": "8_110"}, "geometry": {"type": "Point", "coordinates": [-1.2941, 51.75326]}}, {"type": "Feature", "properties": {"index": "215", "SM": 3, "SM_nom": "Vale of White Horse", "cluster": "3_25"}, "geometry": {"type": "Point", "coordinates": [-1.2890318706469899, 51.657043824252256]}}, {"type": "Feature", "properties": {"index": "646", "SM": 10, "SM_nom": "Berkshire", "cluster": "10_15"}, "geometry": {"type": "Point", "coordinates": [-1.3109149510242744, 51.3948248958134]}}, {"type": "Feature", "properties": {"index": "725", "SM": 8, "SM_nom": "spare zone", "cluster": "8_108"}, "geometry": {"type": "Point", "coordinates": [-1.2941, 51.75326]}}, {"type": "Feature", "properties": {"index": "690", "SM": 10, "SM_nom": "Heathrow Airport", "cluster": "10_39"}, "geometry": {"type": "Point", "coordinates": [-0.46858143162572663, 51.47867399496016]}}, {"type": "Feature", "properties": {"index": "54", "SM": 0, "SM_nom": "Oxford", "cluster": "0_80"}, "geometry": {"type": "Point", "coordinates": [-1.1994693999295682, 51.768157499104824]}}, {"type": "Feature", "properties": {"index": "366", "SM": 9, "SM_nom": "Cherwell", "cluster": "9_19"}, "geometry": {"type": "Point", "coordinates": [-1.3431869414594888, 51.98249414027826]}}, {"type": "Feature", "properties": {"index": "575", "SM": 11, "SM_nom": "Dorset", "cluster": "11_6"}, "geometry": {"type": "Point", "coordinates": [-2.3457666614607504, 50.797716408750816]}}, {"type": "Feature", "properties": {"index": "359", "SM": 9, "SM_nom": "Cherwell", "cluster": "9_15"}, "geometry": {"type": "Point", "coordinates": [-1.2628390676796448, 51.93006803878095]}}, {"type": "Feature", "properties": {"index": "735", "SM": 8, "SM_nom": "spare zone", "cluster": "8_118"}, "geometry": {"type": "Point", "coordinates": [-1.2941, 51.75326]}}, {"type": "Feature", "properties": {"index": "402", "SM": 7, "SM_nom": "West_Oxfordshire", "cluster": "7_21"}, "geometry": {"type": "Point", "coordinates": [-1.6409742008961448, 51.87059599842999]}}, {"type": "Feature", "properties": {"index": "893", "SM": 8, "SM_nom": "spare zone", "cluster": "8_276"}, "geometry": {"type": "Point", "coordinates": [-1.2941, 51.75326]}}, {"type": "Feature", "properties": {"index": "675", "SM": 14, "SM_nom": "Birmingham", "cluster": "14_20"}, "geometry": {"type": "Point", "coordinates": [-1.8517075863464123, 52.49343071448877]}}, {"type": "Feature", "properties": {"index": "613", "SM": 12, "SM_nom": "Northamptonshire", "cluster": "12_9"}, "geometry": {"type": "Point", "coordinates": [-1.0345039665463145, 52.276824367169944]}}, {"type": "Feature", "properties": {"index": "182", "SM": 1, "SM_nom": "Cherwell", "cluster": "1_18"}, "geometry": {"type": "Point", "coordinates": [-1.148676551592954, 51.90483896682164]}}, {"type": "Feature", "properties": {"index": "878", "SM": 8, "SM_nom": "spare zone", "cluster": "8_261"}, "geometry": {"type": "Point", "coordinates": [-1.2941, 51.75326]}}, {"type": "Feature", "properties": {"index": "186", "SM": 1, "SM_nom": "Cherwell", "cluster": "1_22"}, "geometry": {"type": "Point", "coordinates": [-1.157516324096657, 51.91077425626468]}}, {"type": "Feature", "properties": {"index": "702", "SM": 8, "SM_nom": "spare zone", "cluster": "8_85"}, "geometry": {"type": "Point", "coordinates": [-1.2941, 51.75326]}}, {"type": "Feature", "properties": {"index": "712", "SM": 8, "SM_nom": "spare zone", "cluster": "8_95"}, "geometry": {"type": "Point", "coordinates": [-1.2941, 51.75326]}}, {"type": "Feature", "properties": {"index": "551", "SM": 7, "SM_nom": "West_Oxfordshire", "cluster": "7_76"}, "geometry": {"type": "Point", "coordinates": [-1.6015826326267877, 51.76329086014269]}}, {"type": "Feature", "properties": {"index": "418", "SM": 7, "SM_nom": "West_Oxfordshire", "cluster": "7_37"}, "geometry": {"type": "Point", "coordinates": [-1.6011573817752645, 51.77059078069696]}}, {"type": "Feature", "properties": {"index": "301", "SM": 6, "SM_nom": "South Oxfordshire", "cluster": "6_21"}, "geometry": {"type": "Point", "coordinates": [-1.0697564665554127, 51.52577849416346]}}, {"type": "Feature", "properties": {"index": "225", "SM": 2, "SM_nom": "West_Oxfordshire", "cluster": "2_5"}, "geometry": {"type": "Point", "coordinates": [-1.483907656961177, 51.787734250361964]}}, {"type": "Feature", "properties": {"index": "839", "SM": 8, "SM_nom": "spare zone", "cluster": "8_222"}, "geometry": {"type": "Point", "coordinates": [-1.2941, 51.75326]}}, {"type": "Feature", "properties": {"index": "720", "SM": 8, "SM_nom": "spare zone", "cluster": "8_103"}, "geometry": {"type": "Point", "coordinates": [-1.2941, 51.75326]}}, {"type": "Feature", "properties": {"index": "616", "SM": 12, "SM_nom": "Northamptonshire", "cluster": "12_12"}, "geometry": {"type": "Point", "coordinates": [-0.7133074578330156, 52.277407422058715]}}, {"type": "Feature", "properties": {"index": "521", "SM": 9, "SM_nom": "Cherwell", "cluster": "9_44"}, "geometry": {"type": "Point", "coordinates": [-1.283362714035535, 51.80728457270958]}}, {"type": "Feature", "properties": {"index": "530", "SM": 9, "SM_nom": "Cherwell", "cluster": "9_53"}, "geometry": {"type": "Point", "coordinates": [-1.2965763096426748, 51.822520042571895]}}, {"type": "Feature", "properties": {"index": "756", "SM": 8, "SM_nom": "spare zone", "cluster": "8_139"}, "geometry": {"type": "Point", "coordinates": [-1.2941, 51.75326]}}, {"type": "Feature", "properties": {"index": "696", "SM": 10, "SM_nom": "NW London", "cluster": "10_42"}, "geometry": {"type": "Point", "coordinates": [-0.33411245305694615, 51.56740653866905]}}, {"type": "Feature", "properties": {"index": "611", "SM": 12, "SM_nom": "Northampton", "cluster": "12_7"}, "geometry": {"type": "Point", "coordinates": [-0.9029383702005804, 52.23406198597858]}}, {"type": "Feature", "properties": {"index": "50", "SM": 0, "SM_nom": "Oxford", "cluster": "0_76"}, "geometry": {"type": "Point", "coordinates": [-1.2162352767739806, 51.760874866205]}}, {"type": "Feature", "properties": {"index": "105", "SM": 0, "SM_nom": "Oxford", "cluster": "0_7"}, "geometry": {"type": "Point", "coordinates": [-1.2152288151177153, 51.723625900034776]}}, {"type": "Feature", "properties": {"index": "200", "SM": 3, "SM_nom": "Vale of White Horse", "cluster": "3_10"}, "geometry": {"type": "Point", "coordinates": [-1.2836536624541433, 51.68004881686407]}}, {"type": "Feature", "properties": {"index": "621", "SM": 12, "SM_nom": "Buckinghamshire", "cluster": "12_17"}, "geometry": {"type": "Point", "coordinates": [-0.8554244055767064, 51.974392441842674]}}, {"type": "Feature", "properties": {"index": "119", "SM": 0, "SM_nom": "Oxford", "cluster": "0_22"}, "geometry": {"type": "Point", "coordinates": [-1.275855515337878, 51.77651606538497]}}, {"type": "Feature", "properties": {"index": "617", "SM": 12, "SM_nom": "Northamptonshire", "cluster": "12_13"}, "geometry": {"type": "Point", "coordinates": [-0.6345084529033941, 52.44789880086539]}}, {"type": "Feature", "properties": {"index": "236", "SM": 2, "SM_nom": "West_Oxfordshire", "cluster": "2_16"}, "geometry": {"type": "Point", "coordinates": [-1.4817602012791404, 51.79621571795473]}}, {"type": "Feature", "properties": {"index": "683", "SM": 12, "SM_nom": "Hertfordshire", "cluster": "12_33"}, "geometry": {"type": "Point", "coordinates": [-0.44421322640062255, 51.67119514566286]}}, {"type": "Feature", "properties": {"index": "476", "SM": 6, "SM_nom": "South Oxfordshire", "cluster": "6_74"}, "geometry": {"type": "Point", "coordinates": [-1.095277211368532, 51.614663288044625]}}, {"type": "Feature", "properties": {"index": "59", "SM": 0, "SM_nom": "Oxford", "cluster": "0_85"}, "geometry": {"type": "Point", "coordinates": [-1.2037428715911846, 51.759059618696895]}}, {"type": "Feature", "properties": {"index": "614", "SM": 12, "SM_nom": "Northamptonshire", "cluster": "12_10"}, "geometry": {"type": "Point", "coordinates": [-1.003151064683518, 52.419139242090466]}}, {"type": "Feature", "properties": {"index": "832", "SM": 8, "SM_nom": "spare zone", "cluster": "8_215"}, "geometry": {"type": "Point", "coordinates": [-1.2941, 51.75326]}}, {"type": "Feature", "properties": {"index": "2", "SM": 0, "SM_nom": "Oxford", "cluster": "0_32"}, "geometry": {"type": "Point", "coordinates": [-1.188631029085745, 51.732280852378004]}}, {"type": "Feature", "properties": {"index": "153", "SM": 8, "SM_nom": "Vale of White Horse", "cluster": "8_7"}, "geometry": {"type": "Point", "coordinates": [-1.4383869964041445, 51.592770849184525]}}, {"type": "Feature", "properties": {"index": "537", "SM": 9, "SM_nom": "Cherwell", "cluster": "9_59"}, "geometry": {"type": "Point", "coordinates": [-1.2300982881700335, 51.86078925900437]}}, {"type": "Feature", "properties": {"index": "831", "SM": 8, "SM_nom": "spare zone", "cluster": "8_214"}, "geometry": {"type": "Point", "coordinates": [-1.2941, 51.75326]}}, {"type": "Feature", "properties": {"index": "736", "SM": 8, "SM_nom": "spare zone", "cluster": "8_119"}, "geometry": {"type": "Point", "coordinates": [-1.2941, 51.75326]}}, {"type": "Feature", "properties": {"index": "307", "SM": 6, "SM_nom": "South Oxfordshire", "cluster": "6_27"}, "geometry": {"type": "Point", "coordinates": [-0.9285414823231135, 51.49433135610503]}}, {"type": "Feature", "properties": {"index": "647", "SM": 10, "SM_nom": "Berkshire", "cluster": "10_16"}, "geometry": {"type": "Point", "coordinates": [-1.0863265928568564, 51.40881286389909]}}, {"type": "Feature", "properties": {"index": "764", "SM": 8, "SM_nom": "spare zone", "cluster": "8_147"}, "geometry": {"type": "Point", "coordinates": [-1.2941, 51.75326]}}, {"type": "Feature", "properties": {"index": "848", "SM": 8, "SM_nom": "spare zone", "cluster": "8_231"}, "geometry": {"type": "Point", "coordinates": [-1.2941, 51.75326]}}, {"type": "Feature", "properties": {"index": "626", "SM": 12, "SM_nom": "Buckinghamshire", "cluster": "12_22"}, "geometry": {"type": "Point", "coordinates": [-0.793787435443339, 51.71395748498734]}}, {"type": "Feature", "properties": {"index": "16", "SM": 0, "SM_nom": "Oxford", "cluster": "0_28"}, "geometry": {"type": "Point", "coordinates": [-1.2568853397715185, 51.742966686482504]}}, {"type": "Feature", "properties": {"index": "341", "SM": 6, "SM_nom": "South Oxfordshire", "cluster": "6_61"}, "geometry": {"type": "Point", "coordinates": [-1.1542401839026581, 51.73779400175577]}}, {"type": "Feature", "properties": {"index": "132", "SM": 4, "SM_nom": "South Oxfordshire", "cluster": "4_4"}, "geometry": {"type": "Point", "coordinates": [-1.2523016384808972, 51.59743817743136]}}, {"type": "Feature", "properties": {"index": "761", "SM": 8, "SM_nom": "spare zone", "cluster": "8_144"}, "geometry": {"type": "Point", "coordinates": [-1.2941, 51.75326]}}, {"type": "Feature", "properties": {"index": "892", "SM": 8, "SM_nom": "spare zone", "cluster": "8_275"}, "geometry": {"type": "Point", "coordinates": [-1.2941, 51.75326]}}, {"type": "Feature", "properties": {"index": "274", "SM": 8, "SM_nom": "Vale of White Horse", "cluster": "8_21"}, "geometry": {"type": "Point", "coordinates": [-1.4556248011354636, 51.555737174631574]}}, {"type": "Feature", "properties": {"index": "9", "SM": 0, "SM_nom": "Oxford", "cluster": "0_119"}, "geometry": {"type": "Point", "coordinates": [-1.2852475438814546, 51.76335614310214]}}, {"type": "Feature", "properties": {"index": "732", "SM": 8, "SM_nom": "spare zone", "cluster": "8_115"}, "geometry": {"type": "Point", "coordinates": [-1.2941, 51.75326]}}, {"type": "Feature", "properties": {"index": "180", "SM": 1, "SM_nom": "Cherwell", "cluster": "1_16"}, "geometry": {"type": "Point", "coordinates": [-1.1438882057888604, 51.91071721635043]}}, {"type": "Feature", "properties": {"index": "835", "SM": 8, "SM_nom": "spare zone", "cluster": "8_218"}, "geometry": {"type": "Point", "coordinates": [-1.2941, 51.75326]}}, {"type": "Feature", "properties": {"index": "396", "SM": 7, "SM_nom": "West_Oxfordshire", "cluster": "7_15"}, "geometry": {"type": "Point", "coordinates": [-1.5797525774825079, 51.8751423410901]}}, {"type": "Feature", "properties": {"index": "823", "SM": 8, "SM_nom": "spare zone", "cluster": "8_206"}, "geometry": {"type": "Point", "coordinates": [-1.2941, 51.75326]}}, {"type": "Feature", "properties": {"index": "778", "SM": 8, "SM_nom": "spare zone", "cluster": "8_161"}, "geometry": {"type": "Point", "coordinates": [-1.2941, 51.75326]}}, {"type": "Feature", "properties": {"index": "871", "SM": 8, "SM_nom": "spare zone", "cluster": "8_254"}, "geometry": {"type": "Point", "coordinates": [-1.2941, 51.75326]}}, {"type": "Feature", "properties": {"index": "899", "SM": 8, "SM_nom": "spare zone", "cluster": "8_282"}, "geometry": {"type": "Point", "coordinates": [-1.2941, 51.75326]}}, {"type": "Feature", "properties": {"index": "634", "SM": 10, "SM_nom": "Berkshire", "cluster": "10_3"}, "geometry": {"type": "Point", "coordinates": [-1.2021590684950567, 51.41644889975133]}}, {"type": "Feature", "properties": {"index": "718", "SM": 8, "SM_nom": "spare zone", "cluster": "8_101"}, "geometry": {"type": "Point", "coordinates": [-1.2941, 51.75326]}}, {"type": "Feature", "properties": {"index": "496", "SM": 8, "SM_nom": "Vale of White Horse", "cluster": "8_69"}, "geometry": {"type": "Point", "coordinates": [-1.2855040764536345, 51.74223435781373]}}, {"type": "Feature", "properties": {"index": "122", "SM": 6, "SM_nom": "South Oxfordshire", "cluster": "6_1"}, "geometry": {"type": "Point", "coordinates": [-1.138839430340417, 51.600994850975454]}}, {"type": "Feature", "properties": {"index": "321", "SM": 6, "SM_nom": "South Oxfordshire", "cluster": "6_41"}, "geometry": {"type": "Point", "coordinates": [-0.9182430230962217, 51.705154804424424]}}, {"type": "Feature", "properties": {"index": "155", "SM": 4, "SM_nom": "South Oxfordshire", "cluster": "4_18"}, "geometry": {"type": "Point", "coordinates": [-1.2248212361489865, 51.60250030764483]}}, {"type": "Feature", "properties": {"index": "90", "SM": 0, "SM_nom": "Oxford", "cluster": "0_120"}, "geometry": {"type": "Point", "coordinates": [-1.238073935583905, 51.736264357698786]}}, {"type": "Feature", "properties": {"index": "38", "SM": 0, "SM_nom": "Oxford", "cluster": "0_62"}, "geometry": {"type": "Point", "coordinates": [-1.245089770504458, 51.76761467451438]}}, {"type": "Feature", "properties": {"index": "797", "SM": 8, "SM_nom": "spare zone", "cluster": "8_180"}, "geometry": {"type": "Point", "coordinates": [-1.2941, 51.75326]}}, {"type": "Feature", "properties": {"index": "113", "SM": 0, "SM_nom": "Oxford", "cluster": "0_16"}, "geometry": {"type": "Point", "coordinates": [-1.201660478351751, 51.725679057730304]}}, {"type": "Feature", "properties": {"index": "195", "SM": 3, "SM_nom": "Vale of White Horse", "cluster": "3_5"}, "geometry": {"type": "Point", "coordinates": [-1.2607395038279403, 51.68424907843033]}}, {"type": "Feature", "properties": {"index": "387", "SM": 7, "SM_nom": "West_Oxfordshire", "cluster": "7_6"}, "geometry": {"type": "Point", "coordinates": [-1.527173164561153, 51.93940927016156]}}, {"type": "Feature", "properties": {"index": "737", "SM": 8, "SM_nom": "spare zone", "cluster": "8_120"}, "geometry": {"type": "Point", "coordinates": [-1.2941, 51.75326]}}, {"type": "Feature", "properties": {"index": "319", "SM": 6, "SM_nom": "South Oxfordshire", "cluster": "6_39"}, "geometry": {"type": "Point", "coordinates": [-0.9048238305386362, 51.692325056861776]}}, {"type": "Feature", "properties": {"index": "257", "SM": 0, "SM_nom": "oxford -  Westgate Shopping Centre, Oxford", "cluster": "0_43"}, "geometry": {"type": "Point", "coordinates": [-1.2615817630413106, 51.74929475342255]}}, {"type": "Feature", "properties": {"index": "792", "SM": 8, "SM_nom": "spare zone", "cluster": "8_175"}, "geometry": {"type": "Point", "coordinates": [-1.2941, 51.75326]}}, {"type": "Feature", "properties": {"index": "493", "SM": 8, "SM_nom": "Vale of White Horse", "cluster": "8_66"}, "geometry": {"type": "Point", "coordinates": [-1.2644176770469149, 51.723278533089754]}}, {"type": "Feature", "properties": {"index": "103", "SM": 0, "SM_nom": "Oxford", "cluster": "0_5"}, "geometry": {"type": "Point", "coordinates": [-1.2302994070106785, 51.71979414039023]}}, {"type": "Feature", "properties": {"index": "57", "SM": 0, "SM_nom": "Oxford", "cluster": "0_83"}, "geometry": {"type": "Point", "coordinates": [-1.1894730926186523, 51.757980023833554]}}, {"type": "Feature", "properties": {"index": "3", "SM": 0, "SM_nom": "Oxford", "cluster": "0_53"}, "geometry": {"type": "Point", "coordinates": [-1.2241089300065573, 51.76125374339661]}}, {"type": "Feature", "properties": {"index": "79", "SM": 0, "SM_nom": "Oxford", "cluster": "0_107"}, "geometry": {"type": "Point", "coordinates": [-1.226014858594541, 51.73464220879082]}}, {"type": "Feature", "properties": {"index": "486", "SM": 8, "SM_nom": "South Oxfordshire", "cluster": "8_61"}, "geometry": {"type": "Point", "coordinates": [-1.2332598239958723, 51.6868386864147]}}, {"type": "Feature", "properties": {"index": "677", "SM": 14, "SM_nom": "Birmingham", "cluster": "14_22"}, "geometry": {"type": "Point", "coordinates": [-2.1239206584532786, 52.49012562931162]}}, {"type": "Feature", "properties": {"index": "681", "SM": 12, "SM_nom": "Bedfordshire", "cluster": "12_31"}, "geometry": {"type": "Point", "coordinates": [-0.41156911008782276, 52.063268396445054]}}, {"type": "Feature", "properties": {"index": "717", "SM": 8, "SM_nom": "spare zone", "cluster": "8_100"}, "geometry": {"type": "Point", "coordinates": [-1.2941, 51.75326]}}, {"type": "Feature", "properties": {"index": "445", "SM": 8, "SM_nom": "Vale of White Horse", "cluster": "8_39"}, "geometry": {"type": "Point", "coordinates": [-1.5855693806723923, 51.63957877910619]}}, {"type": "Feature", "properties": {"index": "638", "SM": 10, "SM_nom": "Berkshire", "cluster": "10_7"}, "geometry": {"type": "Point", "coordinates": [-1.5074819908424004, 51.49800923579323]}}, {"type": "Feature", "properties": {"index": "819", "SM": 8, "SM_nom": "spare zone", "cluster": "8_202"}, "geometry": {"type": "Point", "coordinates": [-1.2941, 51.75326]}}, {"type": "Feature", "properties": {"index": "868", "SM": 8, "SM_nom": "spare zone", "cluster": "8_251"}, "geometry": {"type": "Point", "coordinates": [-1.2941, 51.75326]}}, {"type": "Feature", "properties": {"index": "208", "SM": 3, "SM_nom": "Vale of White Horse", "cluster": "3_18"}, "geometry": {"type": "Point", "coordinates": [-1.3039801444433035, 51.673197238389406]}}, {"type": "Feature", "properties": {"index": "879", "SM": 8, "SM_nom": "spare zone", "cluster": "8_262"}, "geometry": {"type": "Point", "coordinates": [-1.2941, 51.75326]}}, {"type": "Feature", "properties": {"index": "18", "SM": 0, "SM_nom": "Oxford", "cluster": "0_30"}, "geometry": {"type": "Point", "coordinates": [-1.2703800399813296, 51.76464935057888]}}, {"type": "Feature", "properties": {"index": "115", "SM": 0, "SM_nom": "Oxford", "cluster": "0_18"}, "geometry": {"type": "Point", "coordinates": [-1.195202763590133, 51.7150994685413]}}, {"type": "Feature", "properties": {"index": "286", "SM": 8, "SM_nom": "Vale of White Horse", "cluster": "8_33"}, "geometry": {"type": "Point", "coordinates": [-1.3015262007566726, 51.57135210699501]}}, {"type": "Feature", "properties": {"index": "838", "SM": 8, "SM_nom": "spare zone", "cluster": "8_221"}, "geometry": {"type": "Point", "coordinates": [-1.2941, 51.75326]}}, {"type": "Feature", "properties": {"index": "691", "SM": 10, "SM_nom": "Gatwick Airport", "cluster": "10_40"}, "geometry": {"type": "Point", "coordinates": [-0.20370226760381654, 51.146306306112976]}}, {"type": "Feature", "properties": {"index": "589", "SM": 11, "SM_nom": "Wiltshire", "cluster": "11_14"}, "geometry": {"type": "Point", "coordinates": [-2.158573323500814, 51.25436753053441]}}, {"type": "Feature", "properties": {"index": "632", "SM": 12, "SM_nom": "Buckinghamshire", "cluster": "12_28"}, "geometry": {"type": "Point", "coordinates": [-0.6344169582293417, 51.585026857309025]}}, {"type": "Feature", "properties": {"index": "516", "SM": 7, "SM_nom": "West_Oxfordshire", "cluster": "7_64"}, "geometry": {"type": "Point", "coordinates": [-1.3846915079812652, 51.81292783408699]}}, {"type": "Feature", "properties": {"index": "399", "SM": 7, "SM_nom": "West_Oxfordshire", "cluster": "7_18"}, "geometry": {"type": "Point", "coordinates": [-1.5624100573579136, 51.93961024159374]}}, {"type": "Feature", "properties": {"index": "724", "SM": 8, "SM_nom": "spare zone", "cluster": "8_107"}, "geometry": {"type": "Point", "coordinates": [-1.2941, 51.75326]}}, {"type": "Feature", "properties": {"index": "791", "SM": 8, "SM_nom": "spare zone", "cluster": "8_174"}, "geometry": {"type": "Point", "coordinates": [-1.2941, 51.75326]}}, {"type": "Feature", "properties": {"index": "513", "SM": 7, "SM_nom": "West_Oxfordshire", "cluster": "7_61"}, "geometry": {"type": "Point", "coordinates": [-1.373786143961544, 51.77944177854071]}}, {"type": "Feature", "properties": {"index": "134", "SM": 4, "SM_nom": "South Oxfordshire", "cluster": "4_6"}, "geometry": {"type": "Point", "coordinates": [-1.2489999907327687, 51.61041564311502]}}, {"type": "Feature", "properties": {"index": "503", "SM": 8, "SM_nom": "Vale of White Horse", "cluster": "8_76"}, "geometry": {"type": "Point", "coordinates": [-1.3141312945624306, 51.749495666729175]}}, {"type": "Feature", "properties": {"index": "865", "SM": 8, "SM_nom": "spare zone", "cluster": "8_248"}, "geometry": {"type": "Point", "coordinates": [-1.2941, 51.75326]}}, {"type": "Feature", "properties": {"index": "438", "SM": 7, "SM_nom": "West_Oxfordshire", "cluster": "7_57"}, "geometry": {"type": "Point", "coordinates": [-1.5113306449628139, 51.72582148900746]}}, {"type": "Feature", "properties": {"index": "629", "SM": 12, "SM_nom": "Buckinghamshire", "cluster": "12_25"}, "geometry": {"type": "Point", "coordinates": [-0.6490093670686334, 51.70592303181022]}}, {"type": "Feature", "properties": {"index": "753", "SM": 8, "SM_nom": "spare zone", "cluster": "8_136"}, "geometry": {"type": "Point", "coordinates": [-1.2941, 51.75326]}}, {"type": "Feature", "properties": {"index": "410", "SM": 7, "SM_nom": "West_Oxfordshire", "cluster": "7_29"}, "geometry": {"type": "Point", "coordinates": [-1.4386920438272677, 51.820161128593824]}}, {"type": "Feature", "properties": {"index": "15", "SM": 0, "SM_nom": "Oxford", "cluster": "0_27"}, "geometry": {"type": "Point", "coordinates": [-1.2622932587385254, 51.74476836654472]}}, {"type": "Feature", "properties": {"index": "853", "SM": 8, "SM_nom": "spare zone", "cluster": "8_236"}, "geometry": {"type": "Point", "coordinates": [-1.2941, 51.75326]}}, {"type": "Feature", "properties": {"index": "811", "SM": 8, "SM_nom": "spare zone", "cluster": "8_194"}, "geometry": {"type": "Point", "coordinates": [-1.2941, 51.75326]}}, {"type": "Feature", "properties": {"index": "666", "SM": 13, "SM_nom": "Gloucestershire", "cluster": "13_14"}, "geometry": {"type": "Point", "coordinates": [-2.2079548313268065, 51.91009846945994]}}, {"type": "Feature", "properties": {"index": "421", "SM": 7, "SM_nom": "West_Oxfordshire", "cluster": "7_40"}, "geometry": {"type": "Point", "coordinates": [-1.5882566975797134, 51.76945809176342]}}, {"type": "Feature", "properties": {"index": "128", "SM": 4, "SM_nom": "South Oxfordshire", "cluster": "4_0"}, "geometry": {"type": "Point", "coordinates": [-1.2584333708660371, 51.59962305221741]}}, {"type": "Feature", "properties": {"index": "14", "SM": 0, "SM_nom": "Oxford", "cluster": "0_26"}, "geometry": {"type": "Point", "coordinates": [-1.2558344867176972, 51.74006590928368]}}, {"type": "Feature", "properties": {"index": "710", "SM": 8, "SM_nom": "spare zone", "cluster": "8_93"}, "geometry": {"type": "Point", "coordinates": [-1.2941, 51.75326]}}, {"type": "Feature", "properties": {"index": "84", "SM": 0, "SM_nom": "Oxford", "cluster": "0_113"}, "geometry": {"type": "Point", "coordinates": [-1.2271091216914054, 51.724745682969456]}}, {"type": "Feature", "properties": {"index": "538", "SM": 9, "SM_nom": "Cherwell", "cluster": "9_60"}, "geometry": {"type": "Point", "coordinates": [-1.2691609732680005, 51.883719059485095]}}, {"type": "Feature", "properties": {"index": "644", "SM": 10, "SM_nom": "Berkshire", "cluster": "10_13"}, "geometry": {"type": "Point", "coordinates": [-1.4545597521641431, 51.403918014863564]}}, {"type": "Feature", "properties": {"index": "672", "SM": 10, "SM_nom": "Surrey", "cluster": "10_37"}, "geometry": {"type": "Point", "coordinates": [-0.16969241118603492, 51.24443524662206]}}, {"type": "Feature", "properties": {"index": "1", "SM": 0, "SM_nom": "Oxford", "cluster": "0_0"}, "geometry": {"type": "Point", "coordinates": [-1.2463310361065643, 51.73251431563617]}}, {"type": "Feature", "properties": {"index": "475", "SM": 6, "SM_nom": "South Oxfordshire", "cluster": "6_73"}, "geometry": {"type": "Point", "coordinates": [-1.1028235405871378, 51.63519578218951]}}, {"type": "Feature", "properties": {"index": "356", "SM": 9, "SM_nom": "Cherwell", "cluster": "9_12"}, "geometry": {"type": "Point", "coordinates": [-1.1930549313207413, 51.94103741215227]}}, {"type": "Feature", "properties": {"index": "100", "SM": 0, "SM_nom": "Oxford", "cluster": "0_2"}, "geometry": {"type": "Point", "coordinates": [-1.2316184003465265, 51.747751546127404]}}, {"type": "Feature", "properties": {"index": "698", "SM": 10, "SM_nom": "SE London", "cluster": "10_44"}, "geometry": {"type": "Point", "coordinates": [0.014542679984142423, 51.400227679616194]}}, {"type": "Feature", "properties": {"index": "661", "SM": 10, "SM_nom": "Hampshire", "cluster": "10_30"}, "geometry": {"type": "Point", "coordinates": [-1.5239399483786233, 51.08886792937817]}}, {"type": "Feature", "properties": {"index": "463", "SM": 8, "SM_nom": "Vale of White Horse", "cluster": "8_57"}, "geometry": {"type": "Point", "coordinates": [-1.2850925589079691, 51.628360346041745]}}, {"type": "Feature", "properties": {"index": "856", "SM": 8, "SM_nom": "spare zone", "cluster": "8_239"}, "geometry": {"type": "Point", "coordinates": [-1.2941, 51.75326]}}, {"type": "Feature", "properties": {"index": "116", "SM": 0, "SM_nom": "Oxford", "cluster": "0_19"}, "geometry": {"type": "Point", "coordinates": [-1.200894168369436, 51.71436992449406]}}, {"type": "Feature", "properties": {"index": "659", "SM": 10, "SM_nom": "Berkshire", "cluster": "10_28"}, "geometry": {"type": "Point", "coordinates": [-0.5219501791033941, 51.48993587836796]}}, {"type": "Feature", "properties": {"index": "70", "SM": 0, "SM_nom": "Oxford", "cluster": "0_98"}, "geometry": {"type": "Point", "coordinates": [-1.2149893751553567, 51.742059596679596]}}, {"type": "Feature", "properties": {"index": "763", "SM": 8, "SM_nom": "spare zone", "cluster": "8_146"}, "geometry": {"type": "Point", "coordinates": [-1.2941, 51.75326]}}, {"type": "Feature", "properties": {"index": "164", "SM": 1, "SM_nom": "Cherwell", "cluster": "1_0"}, "geometry": {"type": "Point", "coordinates": [-1.1715986026985927, 51.900506922575744]}}, {"type": "Feature", "properties": {"index": "851", "SM": 8, "SM_nom": "spare zone", "cluster": "8_234"}, "geometry": {"type": "Point", "coordinates": [-1.2941, 51.75326]}}, {"type": "Feature", "properties": {"index": "404", "SM": 7, "SM_nom": "West_Oxfordshire", "cluster": "7_23"}, "geometry": {"type": "Point", "coordinates": [-1.5930926552520552, 51.84557014338668]}}, {"type": "Feature", "properties": {"index": "588", "SM": 11, "SM_nom": "Wiltshire", "cluster": "11_13"}, "geometry": {"type": "Point", "coordinates": [-1.9960552049429894, 51.46023843696649]}}, {"type": "Feature", "properties": {"index": "836", "SM": 8, "SM_nom": "spare zone", "cluster": "8_219"}, "geometry": {"type": "Point", "coordinates": [-1.2941, 51.75326]}}, {"type": "Feature", "properties": {"index": "129", "SM": 4, "SM_nom": "South Oxfordshire", "cluster": "4_1"}, "geometry": {"type": "Point", "coordinates": [-1.254529140467353, 51.60311862348195]}}, {"type": "Feature", "properties": {"index": "222", "SM": 2, "SM_nom": "West_Oxfordshire", "cluster": "2_2"}, "geometry": {"type": "Point", "coordinates": [-1.5001314895469346, 51.77854655936813]}}, {"type": "Feature", "properties": {"index": "428", "SM": 7, "SM_nom": "West_Oxfordshire", "cluster": "7_47"}, "geometry": {"type": "Point", "coordinates": [-1.60444381180307, 51.75175132248526]}}, {"type": "Feature", "properties": {"index": "641", "SM": 10, "SM_nom": "Berkshire", "cluster": "10_10"}, "geometry": {"type": "Point", "coordinates": [-0.7920458093860028, 51.5085732979075]}}, {"type": "Feature", "properties": {"index": "590", "SM": 11, "SM_nom": "Wiltshire", "cluster": "11_15"}, "geometry": {"type": "Point", "coordinates": [-1.9853554992065923, 51.325399323924174]}}, {"type": "Feature", "properties": {"index": "467", "SM": 6, "SM_nom": "South Oxfordshire", "cluster": "6_65"}, "geometry": {"type": "Point", "coordinates": [-1.2013613695548893, 51.638796758047576]}}, {"type": "Feature", "properties": {"index": "408", "SM": 7, "SM_nom": "West_Oxfordshire", "cluster": "7_27"}, "geometry": {"type": "Point", "coordinates": [-1.5116187222453665, 51.808094732388184]}}, {"type": "Feature", "properties": {"index": "518", "SM": 9, "SM_nom": "Cherwell", "cluster": "9_41"}, "geometry": {"type": "Point", "coordinates": [-1.3089730153771684, 51.804546088247164]}}, {"type": "Feature", "properties": {"index": "6", "SM": 0, "SM_nom": "Oxford", "cluster": "0_86"}, "geometry": {"type": "Point", "coordinates": [-1.2755542620959877, 51.75636766731991]}}, {"type": "Feature", "properties": {"index": "46", "SM": 0, "SM_nom": "Oxford", "cluster": "0_71"}, "geometry": {"type": "Point", "coordinates": [-1.2116394352981745, 51.756744848482015]}}, {"type": "Feature", "properties": {"index": "177", "SM": 1, "SM_nom": "Cherwell", "cluster": "1_13"}, "geometry": {"type": "Point", "coordinates": [-1.140439250008396, 51.895792937424766]}}, {"type": "Feature", "properties": {"index": "799", "SM": 8, "SM_nom": "spare zone", "cluster": "8_182"}, "geometry": {"type": "Point", "coordinates": [-1.2941, 51.75326]}}, {"type": "Feature", "properties": {"index": "682", "SM": 12, "SM_nom": "Hertfordshire", "cluster": "12_32"}, "geometry": {"type": "Point", "coordinates": [-0.5527129002988713, 51.77300113084648]}}, {"type": "Feature", "properties": {"index": "196", "SM": 3, "SM_nom": "Vale of White Horse", "cluster": "3_6"}, "geometry": {"type": "Point", "coordinates": [-1.2602900483041972, 51.679503930769414]}}, {"type": "Feature", "properties": {"index": "749", "SM": 8, "SM_nom": "spare zone", "cluster": "8_132"}, "geometry": {"type": "Point", "coordinates": [-1.2941, 51.75326]}}, {"type": "Feature", "properties": {"index": "67", "SM": 0, "SM_nom": "Oxford", "cluster": "0_94"}, "geometry": {"type": "Point", "coordinates": [-1.1994595659487757, 51.74803252659153]}}, {"type": "Feature", "properties": {"index": "198", "SM": 3, "SM_nom": "Vale of White Horse", "cluster": "3_8"}, "geometry": {"type": "Point", "coordinates": [-1.2708641149935866, 51.682976608535824]}}, {"type": "Feature", "properties": {"index": "501", "SM": 8, "SM_nom": "Vale of White Horse", "cluster": "8_74"}, "geometry": {"type": "Point", "coordinates": [-1.3509136026147173, 51.744300577434046]}}, {"type": "Feature", "properties": {"index": "815", "SM": 8, "SM_nom": "spare zone", "cluster": "8_198"}, "geometry": {"type": "Point", "coordinates": [-1.2941, 51.75326]}}, {"type": "Feature", "properties": {"index": "447", "SM": 8, "SM_nom": "Vale of White Horse", "cluster": "8_41"}, "geometry": {"type": "Point", "coordinates": [-1.5108607838671992, 51.63706188112099]}}, {"type": "Feature", "properties": {"index": "726", "SM": 8, "SM_nom": "spare zone", "cluster": "8_109"}, "geometry": {"type": "Point", "coordinates": [-1.2941, 51.75326]}}, {"type": "Feature", "properties": {"index": "145", "SM": 4, "SM_nom": "South Oxfordshire", "cluster": "4_17"}, "geometry": {"type": "Point", "coordinates": [-1.2282671882838767, 51.61435323455147]}}, {"type": "Feature", "properties": {"index": "472", "SM": 6, "SM_nom": "South Oxfordshire", "cluster": "6_70"}, "geometry": {"type": "Point", "coordinates": [-1.1595361076927242, 51.63834772154227]}}, {"type": "Feature", "properties": {"index": "141", "SM": 4, "SM_nom": "South Oxfordshire", "cluster": "4_13"}, "geometry": {"type": "Point", "coordinates": [-1.220388005305951, 51.612702155139985]}}, {"type": "Feature", "properties": {"index": "230", "SM": 2, "SM_nom": "West_Oxfordshire", "cluster": "2_10"}, "geometry": {"type": "Point", "coordinates": [-1.5082384822296273, 51.78701974546442]}}, {"type": "Feature", "properties": {"index": "660", "SM": 10, "SM_nom": "Berkshire", "cluster": "10_29"}, "geometry": {"type": "Point", "coordinates": [-0.7391208922538375, 51.516642683990185]}}, {"type": "Feature", "properties": {"index": "577", "SM": 13, "SM_nom": "Worcestershire", "cluster": "13_5"}, "geometry": {"type": "Point", "coordinates": [-2.158214354318559, 52.2142911134002]}}, {"type": "Feature", "properties": {"index": "578", "SM": 13, "SM_nom": "Gloucestershire", "cluster": "13_6"}, "geometry": {"type": "Point", "coordinates": [-1.9562612665970072, 51.7093177729891]}}, {"type": "Feature", "properties": {"index": "487", "SM": 8, "SM_nom": "Vale of White Horse", "cluster": "8_62"}, "geometry": {"type": "Point", "coordinates": [-1.2455962401050114, 51.689962884906436]}}, {"type": "Feature", "properties": {"index": "407", "SM": 7, "SM_nom": "West_Oxfordshire", "cluster": "7_26"}, "geometry": {"type": "Point", "coordinates": [-1.6463113187550815, 51.81731846133563]}}, {"type": "Feature", "properties": {"index": "146", "SM": 8, "SM_nom": "Vale of White Horse", "cluster": "8_0"}, "geometry": {"type": "Point", "coordinates": [-1.415471491315682, 51.587583456287355]}}, {"type": "Feature", "properties": {"index": "189", "SM": 1, "SM_nom": "Cherwell", "cluster": "1_25"}, "geometry": {"type": "Point", "coordinates": [-1.1640015507071388, 51.89519462784158]}}, {"type": "Feature", "properties": {"index": "331", "SM": 6, "SM_nom": "South Oxfordshire", "cluster": "6_51"}, "geometry": {"type": "Point", "coordinates": [-0.9661192973171762, 51.74102322132552]}}, {"type": "Feature", "properties": {"index": "55", "SM": 0, "SM_nom": "Oxford", "cluster": "0_81"}, "geometry": {"type": "Point", "coordinates": [-1.2034472405227543, 51.76308522175992]}}, {"type": "Feature", "properties": {"index": "656", "SM": 10, "SM_nom": "Berkshire", "cluster": "10_25"}, "geometry": {"type": "Point", "coordinates": [-0.6208357857910045, 51.42937540861583]}}, {"type": "Feature", "properties": {"index": "524", "SM": 9, "SM_nom": "Cherwell", "cluster": "9_47"}, "geometry": {"type": "Point", "coordinates": [-1.2858554639578572, 51.81744760402964]}}, {"type": "Feature", "properties": {"index": "444", "SM": 9, "SM_nom": "Cherwell", "cluster": "9_40"}, "geometry": {"type": "Point", "coordinates": [-1.1650365882383524, 51.887638226215714]}}, {"type": "Feature", "properties": {"index": "75", "SM": 0, "SM_nom": "Oxford", "cluster": "0_103"}, "geometry": {"type": "Point", "coordinates": [-1.206195010468177, 51.74756448472426]}}, {"type": "Feature", "properties": {"index": "324", "SM": 6, "SM_nom": "South Oxfordshire", "cluster": "6_44"}, "geometry": {"type": "Point", "coordinates": [-0.957287902059992, 51.7520736915201]}}, {"type": "Feature", "properties": {"index": "497", "SM": 8, "SM_nom": "Vale of White Horse", "cluster": "8_70"}, "geometry": {"type": "Point", "coordinates": [-1.2891649120673896, 51.69711547647252]}}, {"type": "Feature", "properties": {"index": "234", "SM": 2, "SM_nom": "West_Oxfordshire", "cluster": "2_14"}, "geometry": {"type": "Point", "coordinates": [-1.4756485896630172, 51.79499275378317]}}, {"type": "Feature", "properties": {"index": "323", "SM": 6, "SM_nom": "South Oxfordshire", "cluster": "6_43"}, "geometry": {"type": "Point", "coordinates": [-0.9764777270232885, 51.73613021675249]}}, {"type": "Feature", "properties": {"index": "855", "SM": 8, "SM_nom": "spare zone", "cluster": "8_238"}, "geometry": {"type": "Point", "coordinates": [-1.2941, 51.75326]}}, {"type": "Feature", "properties": {"index": "558", "SM": 13, "SM_nom": "Gloucestershire", "cluster": "13_1"}, "geometry": {"type": "Point", "coordinates": [-2.3087494027516806, 51.70695989699489]}}, {"type": "Feature", "properties": {"index": "793", "SM": 8, "SM_nom": "spare zone", "cluster": "8_176"}, "geometry": {"type": "Point", "coordinates": [-1.2941, 51.75326]}}, {"type": "Feature", "properties": {"index": "258", "SM": 0, "SM_nom": "oxford -  Worcester Street Car Park", "cluster": "0_44"}, "geometry": {"type": "Point", "coordinates": [-1.2642667515483939, 51.753033669933764]}}, {"type": "Feature", "properties": {"index": "541", "SM": 7, "SM_nom": "West_Oxfordshire", "cluster": "7_69"}, "geometry": {"type": "Point", "coordinates": [-1.3764888631678998, 51.84657286185324]}}, {"type": "Feature", "properties": {"index": "326", "SM": 6, "SM_nom": "South Oxfordshire", "cluster": "6_46"}, "geometry": {"type": "Point", "coordinates": [-0.9783758849659427, 51.75116840808538]}}, {"type": "Feature", "properties": {"index": "437", "SM": 7, "SM_nom": "West_Oxfordshire", "cluster": "7_56"}, "geometry": {"type": "Point", "coordinates": [-1.5344901657537688, 51.72618575552205]}}, {"type": "Feature", "properties": {"index": "147", "SM": 8, "SM_nom": "Vale of White Horse", "cluster": "8_1"}, "geometry": {"type": "Point", "coordinates": [-1.4184435221261915, 51.59249219472637]}}, {"type": "Feature", "properties": {"index": "228", "SM": 2, "SM_nom": "West_Oxfordshire", "cluster": "2_8"}, "geometry": {"type": "Point", "coordinates": [-1.5041885040513367, 51.790841179475905]}}, {"type": "Feature", "properties": {"index": "390", "SM": 7, "SM_nom": "West_Oxfordshire", "cluster": "7_9"}, "geometry": {"type": "Point", "coordinates": [-1.3735693203381933, 51.89092186722351]}}, {"type": "Feature", "properties": {"index": "210", "SM": 3, "SM_nom": "Vale of White Horse", "cluster": "3_20"}, "geometry": {"type": "Point", "coordinates": [-1.2881388891898427, 51.66898323089134]}}, {"type": "Feature", "properties": {"index": "600", "SM": 14, "SM_nom": "Warwickshire", "cluster": "14_13"}, "geometry": {"type": "Point", "coordinates": [-1.4646837652810794, 52.31323703354703]}}, {"type": "Feature", "properties": {"index": "481", "SM": 6, "SM_nom": "South Oxfordshire", "cluster": "6_79"}, "geometry": {"type": "Point", "coordinates": [-1.0682458450872876, 51.67217290530455]}}, {"type": "Feature", "properties": {"index": "58", "SM": 0, "SM_nom": "Oxford", "cluster": "0_84"}, "geometry": {"type": "Point", "coordinates": [-1.189088897442835, 51.760866524794395]}}, {"type": "Feature", "properties": {"index": "546", "SM": 7, "SM_nom": "West_Oxfordshire", "cluster": "7_74"}, "geometry": {"type": "Point", "coordinates": [-1.4143991154292306, 51.840312076970164]}}, {"type": "Feature", "properties": {"index": "117", "SM": 0, "SM_nom": "Oxford", "cluster": "0_20"}, "geometry": {"type": "Point", "coordinates": [-1.2071062602477851, 51.72111155986875]}}, {"type": "Feature", "properties": {"index": "32", "SM": 0, "SM_nom": "Oxford", "cluster": "0_56"}, "geometry": {"type": "Point", "coordinates": [-1.2623219332596158, 51.78966977148866]}}, {"type": "Feature", "properties": {"index": "142", "SM": 4, "SM_nom": "South Oxfordshire", "cluster": "4_14"}, "geometry": {"type": "Point", "coordinates": [-1.2315268555562118, 51.60941806340477]}}, {"type": "Feature", "properties": {"index": "352", "SM": 9, "SM_nom": "Cherwell", "cluster": "9_8"}, "geometry": {"type": "Point", "coordinates": [-1.1060730223558703, 51.93538188268275]}}, {"type": "Feature", "properties": {"index": "657", "SM": 10, "SM_nom": "Berkshire", "cluster": "10_26"}, "geometry": {"type": "Point", "coordinates": [-0.591386959134, 51.47826200394664]}}, {"type": "Feature", "properties": {"index": "697", "SM": 10, "SM_nom": "SW London", "cluster": "10_43"}, "geometry": {"type": "Point", "coordinates": [-0.25822660824034815, 51.412081393874566]}}, {"type": "Feature", "properties": {"index": "545", "SM": 7, "SM_nom": "West_Oxfordshire", "cluster": "7_73"}, "geometry": {"type": "Point", "coordinates": [-1.4086521774734193, 51.8264051335019]}}, {"type": "Feature", "properties": {"index": "267", "SM": 8, "SM_nom": "Vale of White Horse", "cluster": "8_14"}, "geometry": {"type": "Point", "coordinates": [-1.6359525811383424, 51.609928919171765]}}, {"type": "Feature", "properties": {"index": "859", "SM": 8, "SM_nom": "spare zone", "cluster": "8_242"}, "geometry": {"type": "Point", "coordinates": [-1.2941, 51.75326]}}, {"type": "Feature", "properties": {"index": "374", "SM": 9, "SM_nom": "Cherwell", "cluster": "9_27"}, "geometry": {"type": "Point", "coordinates": [-1.334490790156075, 52.03610680868877]}}, {"type": "Feature", "properties": {"index": "60", "SM": 0, "SM_nom": "Oxford", "cluster": "0_87"}, "geometry": {"type": "Point", "coordinates": [-1.2020935018389158, 51.75470265780673]}}, {"type": "Feature", "properties": {"index": "705", "SM": 8, "SM_nom": "spare zone", "cluster": "8_88"}, "geometry": {"type": "Point", "coordinates": [-1.2941, 51.75326]}}, {"type": "Feature", "properties": {"index": "814", "SM": 8, "SM_nom": "spare zone", "cluster": "8_197"}, "geometry": {"type": "Point", "coordinates": [-1.2941, 51.75326]}}, {"type": "Feature", "properties": {"index": "693", "SM": 8, "SM_nom": "Vale of White Horse", "cluster": "8_84"}, "geometry": {"type": "Point", "coordinates": [-1.5815898912551316, 51.65399525062492]}}, {"type": "Feature", "properties": {"index": "283", "SM": 8, "SM_nom": "Vale of White Horse", "cluster": "8_30"}, "geometry": {"type": "Point", "coordinates": [-1.423787469148404, 51.60605638931118]}}, {"type": "Feature", "properties": {"index": "31", "SM": 0, "SM_nom": "Oxford", "cluster": "0_55"}, "geometry": {"type": "Point", "coordinates": [-1.2996369233991518, 51.77971313103606]}}, {"type": "Feature", "properties": {"index": "288", "SM": 8, "SM_nom": "Vale of White Horse", "cluster": "8_34"}, "geometry": {"type": "Point", "coordinates": [-1.2562043645565915, 51.55923389421601]}}, {"type": "Feature", "properties": {"index": "615", "SM": 12, "SM_nom": "Northamptonshire", "cluster": "12_11"}, "geometry": {"type": "Point", "coordinates": [-0.8804180729942077, 52.33992501052282]}}, {"type": "Feature", "properties": {"index": "517", "SM": 7, "SM_nom": "West_Oxfordshire", "cluster": "7_65"}, "geometry": {"type": "Point", "coordinates": [-1.3455601757186313, 51.80307410490707]}}, {"type": "Feature", "properties": {"index": "599", "SM": 14, "SM_nom": "Warwickshire", "cluster": "14_12"}, "geometry": {"type": "Point", "coordinates": [-1.6630659246870891, 52.33983056215424]}}, {"type": "Feature", "properties": {"index": "168", "SM": 1, "SM_nom": "Cherwell", "cluster": "1_4"}, "geometry": {"type": "Point", "coordinates": [-1.1582513787646032, 51.902888289237524]}}, {"type": "Feature", "properties": {"index": "194", "SM": 3, "SM_nom": "Vale of White Horse", "cluster": "3_4"}, "geometry": {"type": "Point", "coordinates": [-1.265011031133053, 51.68179334403064]}}, {"type": "Feature", "properties": {"index": "678", "SM": 14, "SM_nom": "West Midlands", "cluster": "14_23"}, "geometry": {"type": "Point", "coordinates": [-1.7182007165659483, 52.42999384636649]}}, {"type": "Feature", "properties": {"index": "636", "SM": 10, "SM_nom": "Berkshire", "cluster": "10_5"}, "geometry": {"type": "Point", "coordinates": [-1.2432286217996285, 51.45777339825002]}}, {"type": "Feature", "properties": {"index": "789", "SM": 8, "SM_nom": "spare zone", "cluster": "8_172"}, "geometry": {"type": "Point", "coordinates": [-1.2941, 51.75326]}}, {"type": "Feature", "properties": {"index": "471", "SM": 6, "SM_nom": "South Oxfordshire", "cluster": "6_69"}, "geometry": {"type": "Point", "coordinates": [-1.1605344977205838, 51.65874977699535]}}, {"type": "Feature", "properties": {"index": "699", "SM": 10, "SM_nom": "NE London", "cluster": "10_45"}, "geometry": {"type": "Point", "coordinates": [0.10987305866648098, 51.588283658589695]}}, {"type": "Feature", "properties": {"index": "515", "SM": 7, "SM_nom": "West_Oxfordshire", "cluster": "7_63"}, "geometry": {"type": "Point", "coordinates": [-1.3731940531010096, 51.78493972827664]}}, {"type": "Feature", "properties": {"index": "95", "SM": 0, "SM_nom": "Oxford", "cluster": "0_129"}, "geometry": {"type": "Point", "coordinates": [-1.2330262864225705, 51.745267111888815]}}, {"type": "Feature", "properties": {"index": "121", "SM": 6, "SM_nom": "South Oxfordshire", "cluster": "6_0"}, "geometry": {"type": "Point", "coordinates": [-1.126552549064486, 51.59559611188912]}}, {"type": "Feature", "properties": {"index": "183", "SM": 1, "SM_nom": "Cherwell", "cluster": "1_19"}, "geometry": {"type": "Point", "coordinates": [-1.1479858015521458, 51.913355179277076]}}, {"type": "Feature", "properties": {"index": "336", "SM": 6, "SM_nom": "South Oxfordshire", "cluster": "6_56"}, "geometry": {"type": "Point", "coordinates": [-1.1388534576232523, 51.718126526919164]}}, {"type": "Feature", "properties": {"index": "316", "SM": 6, "SM_nom": "South Oxfordshire", "cluster": "6_36"}, "geometry": {"type": "Point", "coordinates": [-1.0080223026185473, 51.647154766579305]}}, {"type": "Feature", "properties": {"index": "664", "SM": 13, "SM_nom": "Gloucester", "cluster": "13_12"}, "geometry": {"type": "Point", "coordinates": [-2.260243705865119, 51.828324015900776]}}, {"type": "Feature", "properties": {"index": "36", "SM": 0, "SM_nom": "Oxford", "cluster": "0_60"}, "geometry": {"type": "Point", "coordinates": [-1.238353076999095, 51.759347881135696]}}, {"type": "Feature", "properties": {"index": "523", "SM": 9, "SM_nom": "Cherwell", "cluster": "9_46"}, "geometry": {"type": "Point", "coordinates": [-1.2655537937158905, 51.818455891077676]}}, {"type": "Feature", "properties": {"index": "173", "SM": 1, "SM_nom": "Cherwell", "cluster": "1_9"}, "geometry": {"type": "Point", "coordinates": [-1.1441417810896946, 51.89874778599105]}}, {"type": "Feature", "properties": {"index": "165", "SM": 1, "SM_nom": "Cherwell", "cluster": "1_1"}, "geometry": {"type": "Point", "coordinates": [-1.1740198284162946, 51.906689361369175]}}, {"type": "Feature", "properties": {"index": "392", "SM": 7, "SM_nom": "West_Oxfordshire", "cluster": "7_11"}, "geometry": {"type": "Point", "coordinates": [-1.4896294906745653, 51.879138758460556]}}, {"type": "Feature", "properties": {"index": "443", "SM": 9, "SM_nom": "Cherwell", "cluster": "9_39"}, "geometry": {"type": "Point", "coordinates": [-1.175010248432283, 51.895542246574294]}}, {"type": "Feature", "properties": {"index": "586", "SM": 11, "SM_nom": "Wiltshire", "cluster": "11_11"}, "geometry": {"type": "Point", "coordinates": [-2.211174519300113, 51.48375417453076]}}, {"type": "Feature", "properties": {"index": "591", "SM": 11, "SM_nom": "Wiltshire", "cluster": "11_16"}, "geometry": {"type": "Point", "coordinates": [-1.6956652814317486, 51.38408934845273]}}, {"type": "Feature", "properties": {"index": "86", "SM": 0, "SM_nom": "Oxford", "cluster": "0_115"}, "geometry": {"type": "Point", "coordinates": [-1.2355194407835537, 51.72818391102584]}}, {"type": "Feature", "properties": {"index": "357", "SM": 9, "SM_nom": "Cherwell", "cluster": "9_13"}, "geometry": {"type": "Point", "coordinates": [-1.2176079033776355, 51.899435155094714]}}, {"type": "Feature", "properties": {"index": "22", "SM": 0, "SM_nom": "Oxford", "cluster": "0_35"}, "geometry": {"type": "Point", "coordinates": [-1.256901622633802, 51.772747755521934]}}, {"type": "Feature", "properties": {"index": "185", "SM": 1, "SM_nom": "Cherwell", "cluster": "1_21"}, "geometry": {"type": "Point", "coordinates": [-1.1522980143527988, 51.9077187927809]}}, {"type": "Feature", "properties": {"index": "37", "SM": 0, "SM_nom": "Oxford", "cluster": "0_61"}, "geometry": {"type": "Point", "coordinates": [-1.239077877519522, 51.762618565364875]}}, {"type": "Feature", "properties": {"index": "386", "SM": 7, "SM_nom": "West_Oxfordshire", "cluster": "7_5"}, "geometry": {"type": "Point", "coordinates": [-1.5461007332988483, 51.96963093840813]}}, {"type": "Feature", "properties": {"index": "800", "SM": 8, "SM_nom": "spare zone", "cluster": "8_183"}, "geometry": {"type": "Point", "coordinates": [-1.2941, 51.75326]}}, {"type": "Feature", "properties": {"index": "741", "SM": 8, "SM_nom": "spare zone", "cluster": "8_124"}, "geometry": {"type": "Point", "coordinates": [-1.2941, 51.75326]}}, {"type": "Feature", "properties": {"index": "711", "SM": 8, "SM_nom": "spare zone", "cluster": "8_94"}, "geometry": {"type": "Point", "coordinates": [-1.2941, 51.75326]}}, {"type": "Feature", "properties": {"index": "190", "SM": 3, "SM_nom": "Vale of White Horse", "cluster": "3_0"}, "geometry": {"type": "Point", "coordinates": [-1.278017718027919, 51.6846559767202]}}, {"type": "Feature", "properties": {"index": "829", "SM": 8, "SM_nom": "spare zone", "cluster": "8_212"}, "geometry": {"type": "Point", "coordinates": [-1.2941, 51.75326]}}, {"type": "Feature", "properties": {"index": "502", "SM": 8, "SM_nom": "Vale of White Horse", "cluster": "8_75"}, "geometry": {"type": "Point", "coordinates": [-1.329944257559757, 51.75918106578969]}}, {"type": "Feature", "properties": {"index": "362", "SM": 9, "SM_nom": "Cherwell", "cluster": "9_17"}, "geometry": {"type": "Point", "coordinates": [-1.306711724764397, 51.92928898422058]}}, {"type": "Feature", "properties": {"index": "803", "SM": 8, "SM_nom": "spare zone", "cluster": "8_186"}, "geometry": {"type": "Point", "coordinates": [-1.2941, 51.75326]}}, {"type": "Feature", "properties": {"index": "468", "SM": 6, "SM_nom": "South Oxfordshire", "cluster": "6_66"}, "geometry": {"type": "Point", "coordinates": [-1.2416285691188151, 51.65745989605558]}}, {"type": "Feature", "properties": {"index": "340", "SM": 6, "SM_nom": "South Oxfordshire", "cluster": "6_60"}, "geometry": {"type": "Point", "coordinates": [-1.143846050160918, 51.7493771966612]}}, {"type": "Feature", "properties": {"index": "92", "SM": 0, "SM_nom": "Oxford", "cluster": "0_126"}, "geometry": {"type": "Point", "coordinates": [-1.230373395390854, 51.73868745939086]}}, {"type": "Feature", "properties": {"index": "427", "SM": 7, "SM_nom": "West_Oxfordshire", "cluster": "7_46"}, "geometry": {"type": "Point", "coordinates": [-1.5976606435967649, 51.75421485350883]}}, {"type": "Feature", "properties": {"index": "378", "SM": 9, "SM_nom": "Cherwell", "cluster": "9_31"}, "geometry": {"type": "Point", "coordinates": [-1.3845481127828396, 52.07869129414608]}}, {"type": "Feature", "properties": {"index": "420", "SM": 7, "SM_nom": "West_Oxfordshire", "cluster": "7_39"}, "geometry": {"type": "Point", "coordinates": [-1.5929001509480383, 51.77114496446636]}}, {"type": "Feature", "properties": {"index": "663", "SM": 10, "SM_nom": "Hampshire", "cluster": "10_32"}, "geometry": {"type": "Point", "coordinates": [-1.1270878322483286, 50.992571720543054]}}, {"type": "Feature", "properties": {"index": "209", "SM": 3, "SM_nom": "Vale of White Horse", "cluster": "3_19"}, "geometry": {"type": "Point", "coordinates": [-1.2954900983065007, 51.67587228542811]}}, {"type": "Feature", "properties": {"index": "125", "SM": 6, "SM_nom": "South Oxfordshire", "cluster": "6_4"}, "geometry": {"type": "Point", "coordinates": [-1.1225078686516445, 51.60213301349209]}}, {"type": "Feature", "properties": {"index": "612", "SM": 12, "SM_nom": "Northamptonshire", "cluster": "12_8"}, "geometry": {"type": "Point", "coordinates": [-1.1902581939450165, 52.21364471733591]}}, {"type": "Feature", "properties": {"index": "648", "SM": 10, "SM_nom": "Berkshire", "cluster": "10_17"}, "geometry": {"type": "Point", "coordinates": [-1.081072110258257, 51.46345407597737]}}, {"type": "Feature", "properties": {"index": "17", "SM": 0, "SM_nom": "Oxford", "cluster": "0_29"}, "geometry": {"type": "Point", "coordinates": [-1.2550218260122221, 51.74434382390281]}}, {"type": "Feature", "properties": {"index": "264", "SM": 8, "SM_nom": "Vale of White Horse", "cluster": "8_11"}, "geometry": {"type": "Point", "coordinates": [-1.6719984132133257, 51.58462722219889]}}, {"type": "Feature", "properties": {"index": "151", "SM": 8, "SM_nom": "Vale of White Horse", "cluster": "8_5"}, "geometry": {"type": "Point", "coordinates": [-1.4271338053383413, 51.596621599473266]}}, {"type": "Feature", "properties": {"index": "861", "SM": 8, "SM_nom": "spare zone", "cluster": "8_244"}, "geometry": {"type": "Point", "coordinates": [-1.2941, 51.75326]}}, {"type": "Feature", "properties": {"index": "527", "SM": 9, "SM_nom": "Cherwell", "cluster": "9_50"}, "geometry": {"type": "Point", "coordinates": [-1.2807722346181203, 51.82312051214131]}}, {"type": "Feature", "properties": {"index": "429", "SM": 7, "SM_nom": "West_Oxfordshire", "cluster": "7_48"}, "geometry": {"type": "Point", "coordinates": [-1.5601128345848925, 51.73488682337607]}}, {"type": "Feature", "properties": {"index": "368", "SM": 9, "SM_nom": "Cherwell", "cluster": "9_21"}, "geometry": {"type": "Point", "coordinates": [-1.2933165046000221, 52.018585372963116]}}, {"type": "Feature", "properties": {"index": "221", "SM": 2, "SM_nom": "West_Oxfordshire", "cluster": "2_1"}, "geometry": {"type": "Point", "coordinates": [-1.4929244877737282, 51.784127157748244]}}, {"type": "Feature", "properties": {"index": "335", "SM": 6, "SM_nom": "South Oxfordshire", "cluster": "6_55"}, "geometry": {"type": "Point", "coordinates": [-1.1101811496439837, 51.709277020731534]}}, {"type": "Feature", "properties": {"index": "27", "SM": 0, "SM_nom": "Oxford", "cluster": "0_50"}, "geometry": {"type": "Point", "coordinates": [-1.2703313903623341, 51.78374884336924]}}, {"type": "Feature", "properties": {"index": "460", "SM": 8, "SM_nom": "Vale of White Horse", "cluster": "8_54"}, "geometry": {"type": "Point", "coordinates": [-1.2980491969702648, 51.599004752041786]}}, {"type": "Feature", "properties": {"index": "351", "SM": 9, "SM_nom": "Cherwell", "cluster": "9_7"}, "geometry": {"type": "Point", "coordinates": [-1.1079889882027907, 51.906493384571746]}}, {"type": "Feature", "properties": {"index": "12", "SM": 0, "SM_nom": "Oxford", "cluster": "0_23"}, "geometry": {"type": "Point", "coordinates": [-1.2675190173304107, 51.749345592746316]}}, {"type": "Feature", "properties": {"index": "135", "SM": 4, "SM_nom": "South Oxfordshire", "cluster": "4_7"}, "geometry": {"type": "Point", "coordinates": [-1.2576881100657546, 51.60562291980567]}}, {"type": "Feature", "properties": {"index": "73", "SM": 0, "SM_nom": "Oxford", "cluster": "0_101"}, "geometry": {"type": "Point", "coordinates": [-1.2165940630428733, 51.73665680644795]}}, {"type": "Feature", "properties": {"index": "466", "SM": 8, "SM_nom": "Vale of White Horse", "cluster": "8_60"}, "geometry": {"type": "Point", "coordinates": [-1.2406393760560546, 51.633086571996195]}}, {"type": "Feature", "properties": {"index": "459", "SM": 8, "SM_nom": "Vale of White Horse", "cluster": "8_53"}, "geometry": {"type": "Point", "coordinates": [-1.3043337534645643, 51.6138425588873]}}, {"type": "Feature", "properties": {"index": "495", "SM": 8, "SM_nom": "Vale of White Horse", "cluster": "8_68"}, "geometry": {"type": "Point", "coordinates": [-1.3212462213231908, 51.72662286584769]}}, {"type": "Feature", "properties": {"index": "440", "SM": 8, "SM_nom": "Vale of White Horse", "cluster": "8_37"}, "geometry": {"type": "Point", "coordinates": [-1.5926604329490983, 51.675001350920894]}}, {"type": "Feature", "properties": {"index": "866", "SM": 8, "SM_nom": "spare zone", "cluster": "8_249"}, "geometry": {"type": "Point", "coordinates": [-1.2941, 51.75326]}}, {"type": "Feature", "properties": {"index": "609", "SM": 12, "SM_nom": "Northamptonshire", "cluster": "12_5"}, "geometry": {"type": "Point", "coordinates": [-0.9659807315399058, 52.09129914671996]}}, {"type": "Feature", "properties": {"index": "676", "SM": 14, "SM_nom": "Birmingham", "cluster": "14_21"}, "geometry": {"type": "Point", "coordinates": [-2.011975015101333, 52.5161413183837]}}, {"type": "Feature", "properties": {"index": "380", "SM": 9, "SM_nom": "Cherwell", "cluster": "9_33"}, "geometry": {"type": "Point", "coordinates": [-1.4595246291592217, 52.04672153608256]}}, {"type": "Feature", "properties": {"index": "653", "SM": 10, "SM_nom": "Berkshire", "cluster": "10_22"}, "geometry": {"type": "Point", "coordinates": [-0.7874405795577956, 51.358443291047806]}}, {"type": "Feature", "properties": {"index": "520", "SM": 9, "SM_nom": "Cherwell", "cluster": "9_43"}, "geometry": {"type": "Point", "coordinates": [-1.270400785900995, 51.800186878715905]}}, {"type": "Feature", "properties": {"index": "28", "SM": 0, "SM_nom": "Oxford", "cluster": "0_51"}, "geometry": {"type": "Point", "coordinates": [-1.260326817958825, 51.785112293911496]}}, {"type": "Feature", "properties": {"index": "329", "SM": 6, "SM_nom": "South Oxfordshire", "cluster": "6_49"}, "geometry": {"type": "Point", "coordinates": [-0.9738351212259735, 51.74700858586756]}}, {"type": "Feature", "properties": {"index": "435", "SM": 7, "SM_nom": "West_Oxfordshire", "cluster": "7_54"}, "geometry": {"type": "Point", "coordinates": [-1.5867251233434958, 51.714260657093035]}}, {"type": "Feature", "properties": {"index": "544", "SM": 7, "SM_nom": "West_Oxfordshire", "cluster": "7_72"}, "geometry": {"type": "Point", "coordinates": [-1.4068294707732911, 51.82050926151026]}}, {"type": "Feature", "properties": {"index": "508", "SM": 8, "SM_nom": "Vale of White Horse", "cluster": "8_81"}, "geometry": {"type": "Point", "coordinates": [-1.320174172404909, 51.770769491572985]}}, {"type": "Feature", "properties": {"index": "488", "SM": 8, "SM_nom": "Vale of White Horse", "cluster": "8_63"}, "geometry": {"type": "Point", "coordinates": [-1.2611854730296894, 51.69512887008566]}}, {"type": "Feature", "properties": {"index": "127", "SM": 6, "SM_nom": "South Oxfordshire", "cluster": "6_6"}, "geometry": {"type": "Point", "coordinates": [-1.1311108021667502, 51.60331232716099]}}, {"type": "Feature", "properties": {"index": "77", "SM": 0, "SM_nom": "Oxford", "cluster": "0_105"}, "geometry": {"type": "Point", "coordinates": [-1.1967016410618818, 51.74191901793077]}}, {"type": "Feature", "properties": {"index": "311", "SM": 6, "SM_nom": "South Oxfordshire", "cluster": "6_31"}, "geometry": {"type": "Point", "coordinates": [-0.913964187059138, 51.53899336903781]}}, {"type": "Feature", "properties": {"index": "733", "SM": 8, "SM_nom": "spare zone", "cluster": "8_116"}, "geometry": {"type": "Point", "coordinates": [-1.2941, 51.75326]}}, {"type": "Feature", "properties": {"index": "285", "SM": 8, "SM_nom": "Vale of White Horse", "cluster": "8_32"}, "geometry": {"type": "Point", "coordinates": [-1.438246271692292, 51.606368525376865]}}, {"type": "Feature", "properties": {"index": "669", "SM": 10, "SM_nom": "Hampshire", "cluster": "10_34"}, "geometry": {"type": "Point", "coordinates": [-0.8558649803113753, 51.277745363521504]}}, {"type": "Feature", "properties": {"index": "828", "SM": 8, "SM_nom": "spare zone", "cluster": "8_211"}, "geometry": {"type": "Point", "coordinates": [-1.2941, 51.75326]}}, {"type": "Feature", "properties": {"index": "175", "SM": 1, "SM_nom": "Cherwell", "cluster": "1_11"}, "geometry": {"type": "Point", "coordinates": [-1.1320451975067225, 51.89342601913332]}}, {"type": "Feature", "properties": {"index": "596", "SM": 14, "SM_nom": "Warwickshire", "cluster": "14_9"}, "geometry": {"type": "Point", "coordinates": [-1.7850263468519387, 52.24903487857341]}}, {"type": "Feature", "properties": {"index": "312", "SM": 6, "SM_nom": "South Oxfordshire", "cluster": "6_32"},